[{"id":"KEET","name":"ALABASTER","lat":"33.18","lon":"-86.78"},{"id":"K8A0","name":"ALBERTVILLE MUNI","lat":"34.23","lon":"-86.25"},{"id":"KALX","name":"ALEXANDER\/RUSSEL","lat":"32.92","lon":"-85.97"},{"id":"K79J","name":"ANDALUSIA\/OPP AR","lat":"31.32","lon":"-86.4"},{"id":"KANB","name":"ANNISTON","lat":"33.58","lon":"-85.85"},{"id":"KAUB","name":"AUBURN UNIV. (AM","lat":"32.6","lon":"-85.5"},{"id":"KAUO","name":"AUBURN OPELIKA A","lat":"32.62","lon":"-85.42"},{"id":"KEKY","name":"BESSEMER","lat":"33.32","lon":"-86.93"},{"id":"KBHM","name":"BIRMINGHAM","lat":"33.57","lon":"-86.75"},{"id":"KOZR","name":"OZARK\/CAIRNS AAF","lat":"31.28","lon":"-85.72"},{"id":"K0A8","name":"CENTREVILLE WSM","lat":"32.93","lon":"-87.08"},{"id":"K9A4","name":"COURTLAND","lat":"34.67","lon":"-87.35"},{"id":"K3A1","name":"CULLMAN\/FOLSOM F","lat":"34.27","lon":"-86.85"},{"id":"KCMD","name":"CULLMAN\/FOLSOM F","lat":"34.27","lon":"-86.85"},{"id":"KDCU","name":"DECATUR","lat":"34.65","lon":"-86.95"},{"id":"KDYA","name":"DEMOPOLIS","lat":"32.47","lon":"-87.95"},{"id":"KDHN","name":"DOTHAN","lat":"31.32","lon":"-85.45"},{"id":"KEDN","name":"ENTERPRISE","lat":"31.3","lon":"-85.9"},{"id":"KEUF","name":"EUFAULA","lat":"31.95","lon":"-85.13"},{"id":"KGZH","name":"EVERGREEN","lat":"31.42","lon":"-87.05"},{"id":"KCQF","name":"FAIRHOPE","lat":"30.47","lon":"-87.88"},{"id":"K0J4","name":"FLORALA MUNI","lat":"31.05","lon":"-86.32"},{"id":"K4A9","name":"FT PAYNE\/ISBELL","lat":"34.47","lon":"-85.72"},{"id":"KSXS","name":"FT RUCKER\/SHELL","lat":"31.37","lon":"-85.85"},{"id":"KHEY","name":"FT RUCKER\/HANCHE","lat":"31.35","lon":"-85.65"},{"id":"KGAD","name":"GADSDEN MUNI","lat":"33.97","lon":"-86.07"},{"id":"KPRN","name":"GREENVILLE","lat":"31.85","lon":"-86.62"},{"id":"KJKA","name":"GULF SHORES","lat":"30.28","lon":"-87.67"},{"id":"K1M4","name":"HALEYVILLE","lat":"34.28","lon":"-87.6"},{"id":"KHSV","name":"HUNTSVILLE","lat":"34.65","lon":"-86.78"},{"id":"KMDQ","name":"HUNTSVILLE\/MADIS","lat":"34.87","lon":"-86.55"},{"id":"KJFX","name":"JASPER\/WALKER","lat":"33.9","lon":"-87.32"},{"id":"KLOR","name":"LOWE AHP\/FT. RUC","lat":"31.35","lon":"-85.75"},{"id":"KA08","name":"MARION","lat":"32.52","lon":"-87.38"},{"id":"KMXF","name":"MAXWELL AFB\/MGM","lat":"32.37","lon":"-86.37"},{"id":"KBFM","name":"MOBILE\/BROOKLEY","lat":"30.62","lon":"-88.07"},{"id":"KMOB","name":"MOBILE\/BATES","lat":"30.68","lon":"-88.25"},{"id":"KMGM","name":"MONTGOMERY","lat":"32.3","lon":"-86.4"},{"id":"KMSL","name":"MUSCLE SHOAL","lat":"34.75","lon":"-87.6"},{"id":"KPLR","name":"PELL CITY","lat":"33.57","lon":"-86.25"},{"id":"KRAM","name":"PHI OIL PLAT","lat":"29.05","lon":"-88.08"},{"id":"K1A9","name":"PRATTVILLE","lat":"32.43","lon":"-86.52"},{"id":"KHUA","name":"REDSTONE ARSENAL","lat":"34.68","lon":"-86.68"},{"id":"K4A6","name":"SCOTTSBORO","lat":"34.68","lon":"-86.0"},{"id":"KSEM","name":"SELMA\/CRAIG FLD","lat":"32.35","lon":"-86.98"},{"id":"KSCD","name":"SYLACAUGA","lat":"33.17","lon":"-86.3"},{"id":"KASN","name":"TALLADEGA","lat":"33.57","lon":"-86.05"},{"id":"KTOI","name":"TROY","lat":"31.85","lon":"-86.02"},{"id":"KTCL","name":"TUSCALOOSA","lat":"33.22","lon":"-87.62"},{"id":"KVOA","name":"VIOSCA KNOLL768","lat":"29.23","lon":"-87.78"},{"id":"KADF","name":"ARKADELPHIA","lat":"34.1","lon":"-93.07"},{"id":"KBVX","name":"BATESVILLE","lat":"35.73","lon":"-91.65"},{"id":"KH00","name":"BENTONVILLE","lat":"36.35","lon":"-94.22"},{"id":"KVBT","name":"BENTONVILLE","lat":"36.35","lon":"-94.22"},{"id":"KXNA","name":"BENTONVILLE (NW)","lat":"36.28","lon":"-94.3"},{"id":"KHKA","name":"BLYTHEVILLE","lat":"35.93","lon":"-89.83"},{"id":"KBYH","name":"BLYTHEVILLE","lat":"35.97","lon":"-89.95"},{"id":"KSUZ","name":"BENTON","lat":"34.58","lon":"-92.48"},{"id":"KCDH","name":"CAMDEN","lat":"33.62","lon":"-92.77"},{"id":"KCXW","name":"CANTRELL","lat":"35.02","lon":"-92.55"},{"id":"KCCA","name":"CLINTON MUNI","lat":"35.6","lon":"-92.45"},{"id":"K3K8","name":"COLDWATER","lat":"37.22","lon":"-99.33"},{"id":"K4M9","name":"CORNING","lat":"36.4","lon":"-90.65"},{"id":"KDEQ","name":"DE QUEEN","lat":"34.05","lon":"-94.4"},{"id":"KELD","name":"EL DORADO","lat":"33.22","lon":"-92.82"},{"id":"KFYV","name":"FAYETTEVILLE","lat":"36.02","lon":"-94.17"},{"id":"KFLP","name":"FLIPPIN (AWOS)","lat":"36.28","lon":"-92.58"},{"id":"KFSM","name":"FORT SMITH","lat":"35.33","lon":"-94.37"},{"id":"KHRO","name":"HARRISON","lat":"36.27","lon":"-93.15"},{"id":"KHOT","name":"HOT SPRINGS","lat":"34.48","lon":"-93.1"},{"id":"KJBR","name":"JONESBORO","lat":"35.83","lon":"-90.65"},{"id":"KLIT","name":"LITTLE ROCK","lat":"34.73","lon":"-92.23"},{"id":"KLRF","name":"LITTLE ROCK AFB","lat":"34.92","lon":"-92.15"},{"id":"KMEZ","name":"MENA INTERMTN","lat":"34.55","lon":"-94.2"},{"id":"KAWM","name":"W MEMPHIS MUNI","lat":"35.13","lon":"-90.23"},{"id":"KLLQ","name":"MONTICELLO","lat":"33.63","lon":"-91.75"},{"id":"KMWT","name":"MOUNT IDA","lat":"34.55","lon":"-93.58"},{"id":"KBPK","name":"MOUNTAIN HOME","lat":"36.37","lon":"-92.47"},{"id":"KLZK","name":"N. LITTLE ROCK","lat":"34.83","lon":"-92.27"},{"id":"KM19","name":"NEWPORT","lat":"35.65","lon":"-91.17"},{"id":"KPBF","name":"PINE BLUFF\/GRIDR","lat":"34.18","lon":"-91.93"},{"id":"KROG","name":"ROGERS","lat":"36.37","lon":"-94.08"},{"id":"KRUE","name":"RUSSELLVILLE","lat":"35.25","lon":"-93.1"},{"id":"KSRC","name":"SEARCY","lat":"35.22","lon":"-91.73"},{"id":"KSLG","name":"SILOAM SPRING","lat":"36.2","lon":"-94.47"},{"id":"KASG","name":"SPRINGDALE MUNI","lat":"36.17","lon":"-94.12"},{"id":"KSGT","name":"STUTTGART","lat":"34.6","lon":"-91.57"},{"id":"KTXK","name":"TEXARKANA","lat":"33.45","lon":"-93.98"},{"id":"KARG","name":"WALNUT RIDGE","lat":"36.12","lon":"-90.92"},{"id":"KPHX","name":"PHOENIX\/SKY HRBR","lat":"33.43","lon":"-112.02"},{"id":"KTUS","name":"TUCSON","lat":"32.13","lon":"-110.95"},{"id":"KA39","name":"AK-CHIN","lat":"32.98","lon":"-111.92"},{"id":"KBXK","name":"BUCKEYE","lat":"33.42","lon":"-112.68"},{"id":"KIFP","name":"BULLHEAD CITY","lat":"35.15","lon":"-114.57"},{"id":"KCGZ","name":"CASA GRANDE","lat":"32.95","lon":"-111.77"},{"id":"KIWA","name":"CHANDLER\/MESA","lat":"33.3","lon":"-111.65"},{"id":"KCHD","name":"CHANDLER","lat":"33.27","lon":"-111.82"},{"id":"KAZC","name":"COLORADO CITY","lat":"36.97","lon":"-113.02"},{"id":"KP08","name":"COOLIDGE MUNI","lat":"32.93","lon":"-111.43"},{"id":"KDMA","name":"DAVIS\/TUCSON","lat":"32.17","lon":"-110.87"},{"id":"KDUG","name":"DOUGLAS BISBEE","lat":"31.47","lon":"-109.58"},{"id":"KFLG","name":"FLAGSTAFF","lat":"35.13","lon":"-111.67"},{"id":"KFHU","name":"FORT HUACHUCA","lat":"31.58","lon":"-110.35"},{"id":"KGXF","name":"GILA BEND (AAF)","lat":"32.87","lon":"-112.72"},{"id":"KGEU","name":"GLENDALE","lat":"33.53","lon":"-112.3"},{"id":"KLGF","name":"LAGUNA (AAF)","lat":"32.87","lon":"-114.4"},{"id":"KLUF","name":"LUKE AFB\/GLENDAL","lat":"33.52","lon":"-112.37"},{"id":"KGYR","name":"GOODYEAR MUNICIP","lat":"33.42","lon":"-112.37"},{"id":"KGCN","name":"GRAND CANYON","lat":"35.95","lon":"-112.15"},{"id":"K40G","name":"GRAND CANYON\/VAL","lat":"35.63","lon":"-112.15"},{"id":"KIGM","name":"KINGMAN","lat":"35.25","lon":"-113.93"},{"id":"KHII","name":"LAKE HAVASU CITY","lat":"34.57","lon":"-114.37"},{"id":"KFFZ","name":"MESA\/FALCON FLD","lat":"33.47","lon":"-111.72"},{"id":"KOLS","name":"NOGALES","lat":"31.42","lon":"-110.85"},{"id":"KPGA","name":"PAGE","lat":"36.92","lon":"-111.45"},{"id":"KPAN","name":"PAYSON","lat":"34.25","lon":"-111.33"},{"id":"KDVT","name":"PHOENIX\/DEER VLY","lat":"33.68","lon":"-112.07"},{"id":"KALK","name":"PIONEER AIRFIELD","lat":"31.6","lon":"-110.43"},{"id":"KPRC","name":"PRESCOTT","lat":"34.65","lon":"-112.42"},{"id":"KSAD","name":"SAFFORD","lat":"32.85","lon":"-109.63"},{"id":"KSDL","name":"SCOTTSDALE","lat":"33.62","lon":"-111.92"},{"id":"KSEZ","name":"SEDONA","lat":"34.85","lon":"-111.78"},{"id":"KSOW","name":"SHOW LOW MUNICIP","lat":"34.27","lon":"-110.0"},{"id":"KJTC","name":"SPRINGERVILLE","lat":"34.13","lon":"-109.32"},{"id":"KSJN","name":"ST. JOHNS","lat":"34.52","lon":"-109.38"},{"id":"KTYL","name":"TAYLOR","lat":"34.45","lon":"-110.12"},{"id":"KAVQ","name":"TUCSON\/MARANA","lat":"32.4","lon":"-111.22"},{"id":"KRYN","name":"TUCSON\/RYAN FLD","lat":"32.15","lon":"-111.17"},{"id":"KCMR","name":"WILLIAMS CLARK","lat":"35.3","lon":"-112.2"},{"id":"KRQE","name":"WINDOW ROCK","lat":"35.65","lon":"-109.07"},{"id":"KINW","name":"WINSLOW","lat":"35.03","lon":"-110.72"},{"id":"KYUM","name":"YUMA INTL","lat":"32.63","lon":"-114.58"},{"id":"KNOZ","name":"YUMA AUX","lat":"32.5","lon":"-114.45"},{"id":"KNYL","name":"YUMA MCAS","lat":"32.63","lon":"-114.62"},{"id":"KNGZ","name":"ALAMEDA NAS","lat":"37.77","lon":"-122.32"},{"id":"KAAT","name":"ALTURAS","lat":"41.48","lon":"-120.57"},{"id":"KAPV","name":"APPLE VALLEY","lat":"34.57","lon":"-117.18"},{"id":"KACV","name":"ARCATA\/EUREKA","lat":"40.98","lon":"-124.1"},{"id":"KAUN","name":"AUBURN MUNI","lat":"38.95","lon":"-121.08"},{"id":"KAVX","name":"AVALON","lat":"33.4","lon":"-118.42"},{"id":"KBFL","name":"BAKERSFIELD","lat":"35.43","lon":"-119.05"},{"id":"KBAB","name":"BEALE AFB\/MARYSV","lat":"39.12","lon":"-121.42"},{"id":"KBUO","name":"BEAUMONT","lat":"33.92","lon":"-116.97"},{"id":"KL35","name":"BIG BEAR CITY","lat":"34.27","lon":"-116.85"},{"id":"KBYS","name":"BICYCLE LAKE","lat":"35.28","lon":"-116.62"},{"id":"KBIH","name":"BISHOP","lat":"37.37","lon":"-118.35"},{"id":"KBLH","name":"BLYTHE","lat":"33.62","lon":"-114.72"},{"id":"KL08","name":"BORREGO SPRINGS","lat":"33.27","lon":"-116.32"},{"id":"KO57","name":"BRIDGEPORT","lat":"38.27","lon":"-119.22"},{"id":"KBAN","name":"BRIDGEPORT(MCMWT","lat":"38.35","lon":"-119.52"},{"id":"KBUR","name":"BURBANK","lat":"34.2","lon":"-118.37"},{"id":"KBNY","name":"BURNEY","lat":"40.87","lon":"-121.67"},{"id":"KC83","name":"BYRON","lat":"37.83","lon":"-121.62"},{"id":"KCXL","name":"CALEXICO INTL","lat":"32.67","lon":"-115.5"},{"id":"KCMA","name":"CAMARILLO","lat":"34.22","lon":"-119.1"},{"id":"KNFG","name":"CAMP PENDLETON","lat":"33.28","lon":"-117.33"},{"id":"KCZZ","name":"CAMPO","lat":"32.63","lon":"-116.47"},{"id":"KCRQ","name":"CARLSBAD","lat":"33.13","lon":"-117.28"},{"id":"KO59","name":"CEDARVILLE","lat":"41.55","lon":"-120.17"},{"id":"KCIC","name":"CHICO MUNICIPAL","lat":"39.78","lon":"-121.83"},{"id":"KNID","name":"CHINA LAKE (NAF)","lat":"35.67","lon":"-117.67"},{"id":"KCNO","name":"CHINO","lat":"33.98","lon":"-117.62"},{"id":"KO22","name":"COLUMBIA","lat":"38.03","lon":"-120.42"},{"id":"KCCR","name":"CONCORD","lat":"38.0","lon":"-122.05"},{"id":"KAJO","name":"CORONA MUNI","lat":"33.9","lon":"-117.6"},{"id":"KCEC","name":"CRESCENT CITY","lat":"41.77","lon":"-124.22"},{"id":"KDAG","name":"DAGGETT","lat":"34.85","lon":"-116.78"},{"id":"KEDU","name":"DAVIS","lat":"38.53","lon":"-121.78"},{"id":"KDLO","name":"DELANO","lat":"35.75","lon":"-119.23"},{"id":"KEDW","name":"EDWARDS AFB","lat":"34.88","lon":"-117.87"},{"id":"K9L2","name":"EDWARDS N-AUX","lat":"34.97","lon":"-117.87"},{"id":"KNJK","name":"EL CENTRO NAF","lat":"32.82","lon":"-115.67"},{"id":"KEMT","name":"EL MONTE","lat":"34.07","lon":"-118.02"},{"id":"KBLU","name":"EMIGRANT GAP","lat":"39.28","lon":"-120.7"},{"id":"KEKA","name":"EUREKA\/MURRAY","lat":"40.8","lon":"-124.17"},{"id":"KL18","name":"FALLBROOK AIRPAR","lat":"33.35","lon":"-117.25"},{"id":"KFOT","name":"FORTUNA","lat":"40.55","lon":"-124.13"},{"id":"KFAT","name":"FRESNO","lat":"36.78","lon":"-119.72"},{"id":"KFCH","name":"FRESNO CHANDLER","lat":"36.72","lon":"-119.82"},{"id":"KFUL","name":"FULLERTON","lat":"33.87","lon":"-117.98"},{"id":"KGOO","name":"GRASS VALLEY","lat":"39.22","lon":"-121.0"},{"id":"KHAF","name":"HALF MOON BAY","lat":"37.52","lon":"-122.5"},{"id":"KHJO","name":"HANFORD","lat":"36.32","lon":"-119.62"},{"id":"KO18","name":"HANFORD","lat":"36.32","lon":"-119.63"},{"id":"KHHR","name":"HAWTHORNE","lat":"33.92","lon":"-118.33"},{"id":"KHWD","name":"HAYWARD","lat":"37.67","lon":"-122.12"},{"id":"KHES","name":"HEALDSBURG","lat":"38.65","lon":"-122.9"},{"id":"KCVH","name":"HOLLISTER MUNI","lat":"36.9","lon":"-121.42"},{"id":"KHGT","name":"HUNTER LIGGET","lat":"36.0","lon":"-121.22"},{"id":"KIPL","name":"IMPERIAL","lat":"32.83","lon":"-115.58"},{"id":"KNRS","name":"IMPERIAL BEACH","lat":"32.57","lon":"-117.12"},{"id":"KIYK","name":"INYOKERN","lat":"35.67","lon":"-117.82"},{"id":"KJAQ","name":"JACKSON","lat":"38.37","lon":"-120.8"},{"id":"KPOC","name":"LA VERNE\/BRACKET","lat":"34.1","lon":"-117.77"},{"id":"KWJF","name":"LANCASTER\/FOX","lat":"34.72","lon":"-118.22"},{"id":"KNLC","name":"LEMOORE NAS\/REEV","lat":"36.32","lon":"-119.95"},{"id":"KLHM","name":"LINCOLN","lat":"38.92","lon":"-121.35"},{"id":"KLLR","name":"LITTLE RIVER","lat":"39.27","lon":"-123.75"},{"id":"KLVK","name":"LIVERMORE","lat":"37.7","lon":"-121.82"},{"id":"KLPC","name":"LOMPOC","lat":"34.67","lon":"-120.47"},{"id":"KLGB","name":"LONG BEACH","lat":"33.82","lon":"-118.15"},{"id":"KSLI","name":"LOS ALAMITOS AAF","lat":"33.77","lon":"-118.03"},{"id":"KLAX","name":"LOS ANGELES","lat":"33.93","lon":"-118.38"},{"id":"KCQT","name":"LOS ANGELES","lat":"34.02","lon":"-118.28"},{"id":"KWHP","name":"LA \/ WHITEMAN","lat":"34.25","lon":"-118.42"},{"id":"KMAE","name":"MADERA","lat":"36.98","lon":"-120.12"},{"id":"KMMH","name":"MAMMOTH\/JUNE LAK","lat":"37.62","lon":"-118.82"},{"id":"KMYV","name":"MARYSVILLE","lat":"39.1","lon":"-121.57"},{"id":"KMHR","name":"MATHER FIELD","lat":"38.53","lon":"-121.28"},{"id":"KMCC","name":"MCCLELLAN AFB","lat":"38.67","lon":"-121.4"},{"id":"KMCE","name":"MERCED","lat":"37.28","lon":"-120.5"},{"id":"KMER","name":"MERCED\/CASTLE AF","lat":"37.38","lon":"-120.57"},{"id":"KNKX","name":"MIRAMAR NAS\/SAN","lat":"32.87","lon":"-117.13"},{"id":"KMOD","name":"MODESTO","lat":"37.62","lon":"-120.95"},{"id":"KNUQ","name":"MOFFETT NAS\/MTN","lat":"37.4","lon":"-122.05"},{"id":"KMHV","name":"MOJAVE","lat":"35.07","lon":"-118.15"},{"id":"KSIY","name":"MONTAGUE\/SISKIYO","lat":"41.77","lon":"-122.47"},{"id":"KMRY","name":"MONTEREY","lat":"36.58","lon":"-121.85"},{"id":"KMHS","name":"MOUNT SHASTA","lat":"41.32","lon":"-122.32"},{"id":"KMWS","name":"MOUNT WILSON","lat":"34.23","lon":"-118.05"},{"id":"KF70","name":"MURRIETA\/TEMECUL","lat":"33.57","lon":"-117.13"},{"id":"KAPC","name":"NAPA","lat":"38.2","lon":"-122.28"},{"id":"KEED","name":"NEEDLES","lat":"34.77","lon":"-114.62"},{"id":"K3A6","name":"NEWHALL","lat":"34.37","lon":"-118.57"},{"id":"KNZY","name":"NORTH ISLAND NAS","lat":"32.7","lon":"-117.22"},{"id":"KDVO","name":"NOVATO\/GNOSS FLD","lat":"38.15","lon":"-122.55"},{"id":"KOAK","name":"OAKLAND","lat":"37.72","lon":"-122.23"},{"id":"KOKB","name":"OCEANSIDE","lat":"33.22","lon":"-117.35"},{"id":"KNXF","name":"OCEANSIDE\/RED-B","lat":"33.28","lon":"-117.45"},{"id":"KONT","name":"ONTARIO","lat":"34.05","lon":"-117.58"},{"id":"KOVE","name":"OROVILLE","lat":"39.5","lon":"-121.62"},{"id":"KOXR","name":"OXNARD","lat":"34.2","lon":"-119.2"},{"id":"KPSP","name":"PALM SPRINGS","lat":"33.82","lon":"-116.5"},{"id":"KPMD","name":"PALMDALE","lat":"34.63","lon":"-118.08"},{"id":"KGXA","name":"PALMDALE","lat":"34.57","lon":"-117.67"},{"id":"KPAO","name":"PALO ALTO","lat":"37.47","lon":"-122.12"},{"id":"KPRB","name":"PASO ROBLES","lat":"35.67","lon":"-120.63"},{"id":"KO69","name":"PETALUMA","lat":"38.25","lon":"-122.6"},{"id":"KPVF","name":"PLACERVILLE","lat":"38.72","lon":"-120.75"},{"id":"KNTD","name":"POINT MUGU NAS","lat":"34.12","lon":"-119.12"},{"id":"KPTV","name":"PORTERVILLE","lat":"36.02","lon":"-119.07"},{"id":"K87Q","name":"PT. PIEDRAS BLAN","lat":"35.67","lon":"-121.28"},{"id":"KRBL","name":"RED BLUFF","lat":"40.15","lon":"-122.25"},{"id":"KRDD","name":"REDDING","lat":"40.52","lon":"-122.3"},{"id":"KREI","name":"REDLANDS","lat":"34.08","lon":"-117.15"},{"id":"KO32","name":"REEDLEY","lat":"36.67","lon":"-119.45"},{"id":"KO88","name":"RIO VISTA","lat":"38.2","lon":"-121.7"},{"id":"KRAL","name":"RIVERSIDE","lat":"33.95","lon":"-117.45"},{"id":"KRIV","name":"RIVERSIDE\/MARCH","lat":"33.87","lon":"-117.27"},{"id":"KRNM","name":"RAMONA","lat":"33.03","lon":"-116.92"},{"id":"KSAC","name":"SACRAMENTO","lat":"38.5","lon":"-121.5"},{"id":"KSMF","name":"SACRAMENTO\/METRO","lat":"38.7","lon":"-121.6"},{"id":"KSNS","name":"SALINAS","lat":"36.67","lon":"-121.6"},{"id":"KCPU","name":"SAN ANDREAS","lat":"38.15","lon":"-120.65"},{"id":"KSBD","name":"SAN BERNARDINO","lat":"34.08","lon":"-117.25"},{"id":"KSQL","name":"SAN CARLOS AIRPO","lat":"37.52","lon":"-122.25"},{"id":"KNUC","name":"SAN CLEMENTE IS.","lat":"33.02","lon":"-118.57"},{"id":"KSAN","name":"SAN DIEGO","lat":"32.73","lon":"-117.18"},{"id":"KMYF","name":"SAN DIEGO\/MNTGMY","lat":"32.82","lon":"-117.13"},{"id":"KSDM","name":"SAN DIEGO\/BROWN","lat":"32.58","lon":"-117.0"},{"id":"KSEE","name":"SAN DIEGO\/SANTEE","lat":"32.82","lon":"-116.97"},{"id":"KSFO","name":"SAN FRANCISCO","lat":"37.62","lon":"-122.37"},{"id":"KSJC","name":"SAN JOSE","lat":"37.37","lon":"-121.92"},{"id":"KRHV","name":"SAN JOSE\/REID","lat":"37.32","lon":"-121.82"},{"id":"KSBP","name":"SAN LUIS OBISPO","lat":"35.23","lon":"-120.63"},{"id":"KL52","name":"OCEANO CNTY","lat":"35.1","lon":"-120.62"},{"id":"KE16","name":"SAN MARTIN","lat":"37.08","lon":"-121.6"},{"id":"KNSI","name":"SAN NICOLAS ISLA","lat":"33.22","lon":"-119.45"},{"id":"KSDB","name":"SANDBERG","lat":"34.75","lon":"-118.72"},{"id":"KSNA","name":"COSTA MESA","lat":"33.67","lon":"-117.87"},{"id":"KSBA","name":"SANTA BARBARA","lat":"34.43","lon":"-119.85"},{"id":"KSMX","name":"SANTA MARIA","lat":"34.9","lon":"-120.45"},{"id":"KSMO","name":"SANTA MONICA","lat":"34.02","lon":"-118.45"},{"id":"KSTS","name":"SANTA ROSA","lat":"38.5","lon":"-122.82"},{"id":"KIZA","name":"SANTA YNEZ","lat":"34.6","lon":"-120.07"},{"id":"KO87","name":"SHELTER COVE","lat":"40.02","lon":"-124.07"},{"id":"KTVL","name":"SOUTH LAKE TAHOE","lat":"38.9","lon":"-120.0"},{"id":"KSCK","name":"STOCKTON","lat":"37.88","lon":"-121.22"},{"id":"KSVE","name":"SUSANVILLE MUNI","lat":"40.37","lon":"-120.57"},{"id":"KTRM","name":"THERMAL\/PALM SPG","lat":"33.63","lon":"-116.17"},{"id":"KTOA","name":"TORRANCE MUNICIP","lat":"33.78","lon":"-118.32"},{"id":"KTCY","name":"TRACY","lat":"37.68","lon":"-121.43"},{"id":"KSUU","name":"TRAVIS AFB\/FAIRF","lat":"38.27","lon":"-121.92"},{"id":"KTRK","name":"TRUCKEE TAHOE","lat":"39.32","lon":"-120.12"},{"id":"KTSP","name":"TEHACHAPI","lat":"35.13","lon":"-118.43"},{"id":"KO86","name":"TRINITY CENTER","lat":"40.98","lon":"-122.7"},{"id":"KNXP","name":"TWENTYNINE PALMS","lat":"34.28","lon":"-116.17"},{"id":"KUKI","name":"UKIAH","lat":"39.12","lon":"-123.2"},{"id":"KCCB","name":"UPLAND","lat":"34.12","lon":"-117.68"},{"id":"KVCB","name":"VACAVILLE","lat":"38.38","lon":"-121.95"},{"id":"KVNY","name":"VAN NUYS","lat":"34.22","lon":"-118.48"},{"id":"KVBG","name":"VANDENBERG AFB","lat":"34.73","lon":"-120.58"},{"id":"KXVW","name":"VANDENBERG RANGE","lat":"34.72","lon":"-120.57"},{"id":"KVCV","name":"VICTORVILLE","lat":"34.58","lon":"-117.38"},{"id":"KVIS","name":"VISALIA MUNI","lat":"36.32","lon":"-119.4"},{"id":"KWVI","name":"WATSONVILLE","lat":"36.93","lon":"-121.78"},{"id":"KO54","name":"WEAVERVILLE","lat":"40.75","lon":"-122.92"},{"id":"KDEN","name":"DENVER (DIA)","lat":"39.85","lon":"-104.65"},{"id":"KAKO","name":"AKRON","lat":"40.17","lon":"-103.22"},{"id":"KALS","name":"ALAMOSA","lat":"37.43","lon":"-105.87"},{"id":"KASE","name":"ASPEN","lat":"39.23","lon":"-106.87"},{"id":"K0CO","name":"BERTHOUD PASS","lat":"39.8","lon":"-105.77"},{"id":"KBJC","name":"BROOMFIELD\/JEFFC","lat":"39.9","lon":"-105.1"},{"id":"KBKF","name":"BUCKLEY ANGB\/DEN","lat":"39.72","lon":"-104.75"},{"id":"KITR","name":"BURLINGTON","lat":"39.23","lon":"-102.28"},{"id":"K1V6","name":"CANON CITY","lat":"38.43","lon":"-105.1"},{"id":"KCWN","name":"CHEYENNE MOUNTAI","lat":"38.75","lon":"-104.85"},{"id":"KCOS","name":"COLORADO SPRINGS","lat":"38.82","lon":"-104.68"},{"id":"KFLY","name":"CO SPNGS MEADOW","lat":"38.95","lon":"-104.57"},{"id":"KCEZ","name":"CORTEZ","lat":"37.3","lon":"-108.63"},{"id":"KCAG","name":"CRAIG","lat":"40.5","lon":"-107.52"},{"id":"KC99","name":"DAKOTA HILL","lat":"29.87","lon":"-105.55"},{"id":"KRCV","name":"DEL NORTE","lat":"37.72","lon":"-106.35"},{"id":"KAPA","name":"DENVER\/ARAPAHOE","lat":"39.57","lon":"-104.85"},{"id":"KFTG","name":"DENVER F. RANGE","lat":"39.78","lon":"-104.55"},{"id":"KDRO","name":"DURANGO","lat":"37.15","lon":"-107.77"},{"id":"KEGE","name":"EAGLE CO. REGION","lat":"39.63","lon":"-106.92"},{"id":"KFCS","name":"FORT CARSON","lat":"38.67","lon":"-104.77"},{"id":"KFNL","name":"FT COLLINS\/LOVEL","lat":"40.45","lon":"-105.02"},{"id":"KGJT","name":"GRAND JUNCTION","lat":"39.12","lon":"-108.52"},{"id":"KGXY","name":"GREELEY\/WELD","lat":"40.42","lon":"-104.62"},{"id":"KGUC","name":"GUNNISON","lat":"38.52","lon":"-106.92"},{"id":"KHDN","name":"HAYDEN\/YAMPA","lat":"40.47","lon":"-107.22"},{"id":"KLHX","name":"LA JUNTA","lat":"38.05","lon":"-103.52"},{"id":"KLAA","name":"LAMAR","lat":"38.07","lon":"-102.68"},{"id":"KLXV","name":"LEADVILLE","lat":"39.23","lon":"-106.32"},{"id":"KLIC","name":"LIMON","lat":"39.27","lon":"-103.67"},{"id":"KC07","name":"WALTON PEAK","lat":"40.35","lon":"-106.7"},{"id":"KEEO","name":"MEEKER","lat":"40.05","lon":"-107.88"},{"id":"KMTJ","name":"MONTROSE","lat":"38.5","lon":"-107.9"},{"id":"KAIB","name":"NUCLA\/HOPKINS F","lat":"38.23","lon":"-108.57"},{"id":"KPUB","name":"PUEBLO","lat":"38.28","lon":"-104.5"},{"id":"KRIL","name":"RIFLE","lat":"39.53","lon":"-107.73"},{"id":"K04V","name":"SAGUACHE MUNI","lat":"38.1","lon":"-106.17"},{"id":"KSHM","name":"SCHRIEVER AFB","lat":"38.8","lon":"-104.52"},{"id":"KSPD","name":"SPRINGFIELD","lat":"37.28","lon":"-102.62"},{"id":"KSBS","name":"STEAMBOAT SPRING","lat":"40.52","lon":"-106.87"},{"id":"K3MW","name":"MT WERNER SBS","lat":"40.45","lon":"-106.75"},{"id":"KTEX","name":"TELLURIDE REGION","lat":"37.95","lon":"-107.9"},{"id":"KTAD","name":"TRINIDAD\/ANIMAS","lat":"37.27","lon":"-104.33"},{"id":"KAFF","name":"USAF ACADEMY\/COS","lat":"38.97","lon":"-104.82"},{"id":"K2V6","name":"YUMA","lat":"40.1","lon":"-102.72"},{"id":"KFLA","name":"FLAGLER","lat":"39.28","lon":"-103.07"},{"id":"K72C","name":"KIRK","lat":"39.6","lon":"-102.57"},{"id":"KSTK","name":"STERLING","lat":"40.62","lon":"-103.27"},{"id":"KSTR","name":"STRATTON","lat":"39.3","lon":"-102.6"},{"id":"KCCU","name":"RED CLIFF PASS","lat":"39.48","lon":"-106.15"},{"id":"K4V0","name":"RANGELY","lat":"40.1","lon":"-108.77"},{"id":"KAEJ","name":"BUENA VISTA","lat":"38.82","lon":"-106.12"},{"id":"KAJZ","name":"DELTA\/BLAKE FLD","lat":"38.78","lon":"-108.07"},{"id":"KANK","name":"SALIDA","lat":"38.53","lon":"-106.05"},{"id":"KBDU","name":"BOULDER MUNI","lat":"40.03","lon":"-105.23"},{"id":"KABH","name":"ELLICOTT-B AFA","lat":"38.75","lon":"-104.3"},{"id":"KEIK","name":"ERIE MUNI","lat":"40.02","lon":"-105.05"},{"id":"KFMM","name":"FORT MORGAN","lat":"40.33","lon":"-103.8"},{"id":"KGNB","name":"GRANBY\/GRAND CO","lat":"40.08","lon":"-105.92"},{"id":"KHEQ","name":"HOLYOKE","lat":"40.57","lon":"-102.28"},{"id":"KLMO","name":"LONGMONT\/VBRAND","lat":"40.17","lon":"-105.17"},{"id":"KPSO","name":"PAGOSA SPRINGS","lat":"37.28","lon":"-107.05"},{"id":"KCPW","name":"WOLF CREEK PASS","lat":"37.45","lon":"-106.8"},{"id":"KCRV","name":"CORONA PASS","lat":"40.05","lon":"-105.58"},{"id":"KMNH","name":"MONUMENT\/ELBERT","lat":"39.22","lon":"-104.65"},{"id":"KMYP","name":"MONARCH PASS","lat":"38.48","lon":"-106.32"},{"id":"KVTP","name":"LA VETA PASS","lat":"37.5","lon":"-105.17"},{"id":"K33V","name":"WALDEN","lat":"40.75","lon":"-106.28"},{"id":"K20V","name":"KREMMLING AWOS","lat":"40.05","lon":"-106.37"},{"id":"K4BM","name":"WILKERSON PASS","lat":"39.05","lon":"-105.52"},{"id":"K5SM","name":"SUNLIGHT","lat":"39.43","lon":"-107.38"},{"id":"K7BM","name":"COTTONWOOD PASS","lat":"38.78","lon":"-106.22"},{"id":"K2V5","name":"WRAY","lat":"40.1","lon":"-102.25"},{"id":"K1JW","name":"JULIET MADIS","lat":"40.97","lon":"-103.2"},{"id":"K1LW","name":"LIMA MADIS","lat":"40.92","lon":"-103.7"},{"id":"K1MW","name":"MIKE MADIS","lat":"40.7","lon":"-103.48"},{"id":"K1OW","name":"OSCAR MADIS","lat":"40.88","lon":"-104.0"},{"id":"KBDR","name":"BRIDGEPORT","lat":"41.17","lon":"-73.13"},{"id":"KSNC","name":"CHESTER","lat":"41.38","lon":"-72.5"},{"id":"KDXR","name":"DANBURY","lat":"41.37","lon":"-73.48"},{"id":"KGON","name":"GROTON\/NEW LONDO","lat":"41.33","lon":"-72.05"},{"id":"KHFD","name":"HARTFORD\/BRAINAR","lat":"41.73","lon":"-72.65"},{"id":"KMMK","name":"MERIDEN","lat":"41.52","lon":"-72.83"},{"id":"KHVN","name":"NEW HAVEN\/TWEED","lat":"41.27","lon":"-72.87"},{"id":"KOXC","name":"OXFORD\/WATERBURY","lat":"41.47","lon":"-73.13"},{"id":"KIJD","name":"WILLIMANTIC","lat":"41.75","lon":"-72.18"},{"id":"KBDL","name":"WINDSOR LOCKS","lat":"41.93","lon":"-72.68"},{"id":"KDOV","name":"DOVER AFB","lat":"39.12","lon":"-75.47"},{"id":"K33N","name":"DOVER\/CHESWOLD","lat":"39.22","lon":"-75.6"},{"id":"KGED","name":"GEORGETOWN","lat":"38.68","lon":"-75.37"},{"id":"KILG","name":"WILMINGTON","lat":"39.67","lon":"-75.6"},{"id":"KAAF","name":"APALACHICOLA","lat":"29.73","lon":"-85.03"},{"id":"KBOW","name":"BARTOW MUNICIPAL","lat":"27.93","lon":"-81.77"},{"id":"KBCT","name":"BOCA RATON","lat":"26.38","lon":"-80.1"},{"id":"K1J0","name":"BONIFAY TRI-CTY","lat":"30.85","lon":"-85.6"},{"id":"KBKV","name":"BROOKSVILLE","lat":"28.47","lon":"-82.45"},{"id":"KXMR","name":"CAPE CANAVERAL","lat":"28.47","lon":"-80.57"},{"id":"KNZC","name":"CECIL FIELD NAS","lat":"30.22","lon":"-81.87"},{"id":"KCLW","name":"CLEARWATER","lat":"27.98","lon":"-82.75"},{"id":"KCEW","name":"CRESTVIEW","lat":"30.78","lon":"-86.52"},{"id":"KCTY","name":"CROSS CITY","lat":"29.63","lon":"-83.1"},{"id":"KCGC","name":"CRYSTAL RIVER","lat":"28.87","lon":"-82.57"},{"id":"KDAB","name":"DAYTONA BEACH","lat":"29.18","lon":"-81.07"},{"id":"K54J","name":"DE FUNIAK SPRNGS","lat":"30.73","lon":"-86.15"},{"id":"KDED","name":"DELAND","lat":"29.07","lon":"-81.28"},{"id":"KDTS","name":"DESTIN","lat":"30.4","lon":"-86.47"},{"id":"KEGI","name":"DUKE FLD\/EGLIN","lat":"30.63","lon":"-86.52"},{"id":"KVPS","name":"EGLIN AFB\/VALPAR","lat":"30.47","lon":"-86.52"},{"id":"KEGC","name":"EVERGLADES CITY","lat":"25.85","lon":"-81.38"},{"id":"KFHB","name":"FERNANDINA BEACH","lat":"30.62","lon":"-81.47"},{"id":"KFIN","name":"FLAGLER CNTY","lat":"29.47","lon":"-81.2"},{"id":"KFLM","name":"FLAMINGO\/MONROE","lat":"25.13","lon":"-80.92"},{"id":"KFLL","name":"FT LAUDERD\/HOLLY","lat":"26.07","lon":"-80.15"},{"id":"KFXE","name":"FT LAUDERD\/EXEC","lat":"26.2","lon":"-80.18"},{"id":"KRSW","name":"FORT MYERS","lat":"26.53","lon":"-81.75"},{"id":"KFMY","name":"FORT MYERS","lat":"26.58","lon":"-81.87"},{"id":"KFPR","name":"FORT PIERCE","lat":"27.5","lon":"-80.38"},{"id":"KGNV","name":"GAINESVILLE","lat":"29.7","lon":"-82.28"},{"id":"KHWO","name":"HOLLYWOOD","lat":"26.0","lon":"-80.23"},{"id":"KHST","name":"HOMESTEAD AFB","lat":"25.47","lon":"-80.37"},{"id":"KHRT","name":"HURLBURT FIELD","lat":"30.42","lon":"-86.67"},{"id":"KIMM","name":"IMMOKALEE","lat":"26.43","lon":"-81.4"},{"id":"KINF","name":"INVERNESS","lat":"28.8","lon":"-82.32"},{"id":"KCRG","name":"JACKSONVIL\/CRAIG","lat":"30.33","lon":"-81.52"},{"id":"KHEG","name":"JACKSONVIL\/HERLO","lat":"30.28","lon":"-81.8"},{"id":"KNIP","name":"JACKSONVILLE NAS","lat":"30.22","lon":"-81.67"},{"id":"KJAX","name":"JACKSONVILLE","lat":"30.5","lon":"-81.68"},{"id":"KVQQ","name":"JACKSONVIL\/CECIL","lat":"30.22","lon":"-81.88"},{"id":"KNEN","name":"JACKSONVIL\/NAVAL","lat":"30.35","lon":"-81.88"},{"id":"K42J","name":"KEYSTONE HEIGHTS","lat":"29.85","lon":"-82.05"},{"id":"KNQX","name":"KEY WEST NAS","lat":"24.57","lon":"-81.67"},{"id":"KEYW","name":"KEY WEST","lat":"24.55","lon":"-81.75"},{"id":"KISM","name":"KISSIMMEE\/ORLAND","lat":"28.28","lon":"-81.43"},{"id":"KX14","name":"LA BELLE","lat":"26.73","lon":"-81.43"},{"id":"KLCQ","name":"LAKE CITY","lat":"30.18","lon":"-82.58"},{"id":"KX07","name":"LAKE WALES","lat":"27.9","lon":"-81.62"},{"id":"KLAL","name":"LAKELAND REGIONA","lat":"27.97","lon":"-82.02"},{"id":"KLNA","name":"LANTANA\/PALM BEA","lat":"26.6","lon":"-80.02"},{"id":"KLEE","name":"LEESBURG","lat":"28.82","lon":"-81.82"},{"id":"K24J","name":"LIVE OAK\/SUWANNE","lat":"30.3","lon":"-83.03"},{"id":"KMCF","name":"MACDILL AFB\/TAMP","lat":"27.85","lon":"-82.52"},{"id":"KMTH","name":"MARATHON","lat":"24.73","lon":"-81.05"},{"id":"KMKY","name":"MARCO ISLAND","lat":"26.0","lon":"-81.67"},{"id":"KMAI","name":"MARIANNA","lat":"30.83","lon":"-85.18"},{"id":"KNRB","name":"MAYPORT NAS","lat":"30.38","lon":"-81.42"},{"id":"KMLB","name":"MELBOURNE","lat":"28.1","lon":"-80.65"},{"id":"KCOI","name":"MERRITT ISLAND","lat":"28.33","lon":"-80.68"},{"id":"KTMB","name":"MIAMI\/TAMIAMI","lat":"25.65","lon":"-80.43"},{"id":"KMIA","name":"MIAMI","lat":"25.8","lon":"-80.28"},{"id":"KOPF","name":"MIAMI\/OPA LOCKA","lat":"25.92","lon":"-80.28"},{"id":"KMBF","name":"MIAMI BEACH","lat":"25.77","lon":"-80.13"},{"id":"KNDZ","name":"MILTON\/WHITING S","lat":"30.7","lon":"-87.02"},{"id":"KAPF","name":"NAPLES MUNICIPAL","lat":"26.15","lon":"-81.77"},{"id":"KTTS","name":"NASA SHUTTLE FCL","lat":"28.62","lon":"-80.72"},{"id":"KRRF","name":"NEW PORT RICHEY","lat":"28.18","lon":"-82.63"},{"id":"KEVB","name":"NEW SMYRNA BEACH","lat":"29.05","lon":"-80.95"},{"id":"KF45","name":"NORTH PALM BEACH","lat":"26.85","lon":"-80.22"},{"id":"KOCF","name":"OCALA MUNI","lat":"29.17","lon":"-82.22"},{"id":"KOCR","name":"OCEAN REEF","lat":"25.3","lon":"-80.27"},{"id":"KOBE","name":"OKEECHOBEE CTY","lat":"27.27","lon":"-80.85"},{"id":"KMCO","name":"ORLANDO","lat":"28.42","lon":"-81.33"},{"id":"KORL","name":"ORLANDO","lat":"28.55","lon":"-81.33"},{"id":"KOMN","name":"ORMOND BEACH VOR","lat":"29.3","lon":"-81.12"},{"id":"K28J","name":"PALATKA MUNI","lat":"29.65","lon":"-81.58"},{"id":"KXFL","name":"PALM COAST","lat":"29.47","lon":"-81.2"},{"id":"KECP","name":"PANAMA CITY","lat":"30.35","lon":"-85.8"},{"id":"KCOF","name":"PATRICK AFB\/COCO","lat":"28.23","lon":"-80.6"},{"id":"KPNS","name":"PENSACOLA","lat":"30.48","lon":"-87.18"},{"id":"KNPA","name":"PENSACOLA NAS","lat":"30.35","lon":"-87.32"},{"id":"K40J","name":"PERRY FOLEY","lat":"30.07","lon":"-83.57"},{"id":"K54A","name":"PLACIDA","lat":"26.85","lon":"-82.25"},{"id":"KPCM","name":"PLANT CITY MUNI","lat":"28.0","lon":"-82.17"},{"id":"KPMP","name":"POMPANO BEACH","lat":"26.25","lon":"-80.12"},{"id":"KX41","name":"PORT RICHEY","lat":"28.35","lon":"-82.62"},{"id":"KPGD","name":"PUNTA GORDA","lat":"26.92","lon":"-82.0"},{"id":"K2J9","name":"QUINCY","lat":"30.6","lon":"-84.55"},{"id":"KSFB","name":"SANFORD\/ORLANDO","lat":"28.77","lon":"-81.22"},{"id":"KSRQ","name":"SARASOTA\/BRADENT","lat":"27.4","lon":"-82.57"},{"id":"KX26","name":"SEBASTIAN","lat":"27.82","lon":"-80.5"},{"id":"KSEF","name":"SEBRING","lat":"27.45","lon":"-81.35"},{"id":"KSGJ","name":"ST AUGUSTINE","lat":"29.97","lon":"-81.32"},{"id":"KPIE","name":"ST PETERSBURG","lat":"27.92","lon":"-82.68"},{"id":"KSPG","name":"ST PETERS\/ALBERT","lat":"27.77","lon":"-82.63"},{"id":"KSUA","name":"STUART\/WITHAM","lat":"27.18","lon":"-80.22"},{"id":"KTLH","name":"TALLAHASSEE","lat":"30.4","lon":"-84.35"},{"id":"KTPA","name":"TAMPA","lat":"27.97","lon":"-82.53"},{"id":"KTPF","name":"TAMPA\/O KNIGHT","lat":"27.92","lon":"-82.45"},{"id":"KVDF","name":"TAMPA\/VANDENBURG","lat":"28.02","lon":"-82.33"},{"id":"KTIX","name":"TITUSVILLE","lat":"28.5","lon":"-80.8"},{"id":"KPAM","name":"TYNDALL AFB","lat":"30.07","lon":"-85.57"},{"id":"KTDR","name":"TYNDALL DRONE","lat":"30.05","lon":"-85.52"},{"id":"KVNC","name":"VENICE","lat":"27.07","lon":"-82.43"},{"id":"KVRB","name":"VERO BEACH","lat":"27.65","lon":"-80.42"},{"id":"KTRV","name":"VERO BEACH","lat":"27.65","lon":"-80.42"},{"id":"KVVG","name":"THE VILLAGES","lat":"28.95","lon":"-81.97"},{"id":"KPBI","name":"WEST PALM BEACH","lat":"26.68","lon":"-80.1"},{"id":"KNSE","name":"WHITING FLD NAS","lat":"30.73","lon":"-87.02"},{"id":"KX60","name":"WILLISTON","lat":"29.35","lon":"-82.47"},{"id":"KGIF","name":"WINTER HAVEN","lat":"28.07","lon":"-81.75"},{"id":"KZPH","name":"ZEPHYRHILLS","lat":"28.23","lon":"-82.15"},{"id":"KABY","name":"ALBANY","lat":"31.53","lon":"-84.2"},{"id":"KACJ","name":"AMERICUS","lat":"32.12","lon":"-84.18"},{"id":"KAMG","name":"ALMA","lat":"31.53","lon":"-82.5"},{"id":"KAHN","name":"ATHENS","lat":"33.95","lon":"-83.33"},{"id":"KATL","name":"ATLANTA","lat":"33.63","lon":"-84.45"},{"id":"KFTY","name":"ATLANTA\/FULTON","lat":"33.78","lon":"-84.52"},{"id":"KPUJ","name":"ATLANTA\/PAULDING","lat":"33.92","lon":"-84.93"},{"id":"K6A2","name":"GRIFFIN-SPALDING","lat":"33.23","lon":"-84.27"},{"id":"KDNL","name":"AUGUSTA\/DANIEL","lat":"33.47","lon":"-82.03"},{"id":"KAGS","name":"AUGUSTA\/BUSH","lat":"33.37","lon":"-81.97"},{"id":"KBGE","name":"BAINBRIDGE","lat":"30.97","lon":"-84.63"},{"id":"KBHC","name":"BAXLEY MUNI","lat":"31.72","lon":"-82.4"},{"id":"KDZJ","name":"BLAIRSVILLE","lat":"34.85","lon":"-84.0"},{"id":"KBIJ","name":"BLAKELY EARLY C","lat":"31.4","lon":"-84.9"},{"id":"KSSI","name":"BRUNSWICK","lat":"31.15","lon":"-81.38"},{"id":"KBQK","name":"BRUNSWICK\/GLYNCO","lat":"31.25","lon":"-81.47"},{"id":"K6A1","name":"BUTLER","lat":"32.57","lon":"-84.25"},{"id":"KCZL","name":"CALHOUN","lat":"34.47","lon":"-84.93"},{"id":"KCXU","name":"CAMILLA","lat":"31.22","lon":"-84.23"},{"id":"K18A","name":"CANON","lat":"34.35","lon":"-83.13"},{"id":"KCNI","name":"CANTON\/CHEROKEE","lat":"34.32","lon":"-84.42"},{"id":"KCTJ","name":"CARROLLTON\/GRAY","lat":"33.63","lon":"-85.15"},{"id":"KVPC","name":"CARTERSVILLE","lat":"34.13","lon":"-84.85"},{"id":"KCWV","name":"CLAXTON\/EVANS CO","lat":"32.2","lon":"-81.87"},{"id":"K48A","name":"COCHRAN","lat":"32.4","lon":"-83.27"},{"id":"KCSG","name":"COLUMBUS","lat":"32.52","lon":"-84.95"},{"id":"KCKF","name":"CORDELE","lat":"31.98","lon":"-83.77"},{"id":"KAJR","name":"CORNELIA","lat":"34.5","lon":"-83.55"},{"id":"K9A1","name":"COVINGTON","lat":"33.63","lon":"-83.85"},{"id":"KCVC","name":"COVINGTON MUNI","lat":"33.63","lon":"-83.85"},{"id":"KDNN","name":"DALTON","lat":"34.72","lon":"-84.87"},{"id":"KMGE","name":"DOBBINS AFB\/MARI","lat":"33.92","lon":"-84.52"},{"id":"K17J","name":"DONALDSON","lat":"31.07","lon":"-84.92"},{"id":"KDQH","name":"DOUGLAS MUNI","lat":"31.48","lon":"-82.87"},{"id":"KDBN","name":"DUBLIN","lat":"32.57","lon":"-82.98"},{"id":"KEZM","name":"EASTMAN","lat":"32.22","lon":"-83.13"},{"id":"K27A","name":"ELBERTON PATZ F","lat":"34.1","lon":"-82.82"},{"id":"KEBA","name":"ELBERTON PATZ F","lat":"34.1","lon":"-82.82"},{"id":"KFZG","name":"FITZGERALD","lat":"31.68","lon":"-83.27"},{"id":"KLSF","name":"FT BENNING\/COLUM","lat":"32.32","lon":"-84.97"},{"id":"KLHW","name":"FT STEWART\/WRIGH","lat":"31.87","lon":"-81.57"},{"id":"KGVL","name":"GAINESVILLE","lat":"34.27","lon":"-83.83"},{"id":"K49A","name":"GILMORE COUNTY","lat":"34.63","lon":"-84.53"},{"id":"K3J7","name":"GREENSBORO","lat":"33.6","lon":"-83.13"},{"id":"K4A7","name":"HAMPTON\/CLAY CNT","lat":"33.38","lon":"-84.33"},{"id":"KHMP","name":"HAMPTON\/HENRY","lat":"33.38","lon":"-84.33"},{"id":"KAZE","name":"HAZELHURST","lat":"31.88","lon":"-82.65"},{"id":"KHOE","name":"HOMERVILLE","lat":"31.05","lon":"-82.78"},{"id":"KJZP","name":"JASPER","lat":"34.45","lon":"-84.47"},{"id":"K19A","name":"JEFFERSON","lat":"34.18","lon":"-83.57"},{"id":"KJCA","name":"JEFFERSON","lat":"34.18","lon":"-83.57"},{"id":"KJES","name":"JESUP\/WAYNE CTY","lat":"31.55","lon":"-81.88"},{"id":"K9A5","name":"LAFAYETTE","lat":"34.68","lon":"-85.28"},{"id":"KLGC","name":"LA GRANGE","lat":"33.0","lon":"-85.07"},{"id":"KLZU","name":"LAWRENCEVILLE","lat":"33.98","lon":"-83.97"},{"id":"K2J3","name":"LOUISVILLE","lat":"32.98","lon":"-82.38"},{"id":"KMCN","name":"MACON","lat":"32.68","lon":"-83.65"},{"id":"KRYY","name":"MARIETTA MCCOLUM","lat":"34.02","lon":"-84.6"},{"id":"KHQU","name":"MCDUFFIE\/THOMSON","lat":"33.53","lon":"-82.52"},{"id":"KMLJ","name":"MILLEDGEVILLE","lat":"33.15","lon":"-83.23"},{"id":"K2J5","name":"MILLEN","lat":"32.9","lon":"-81.97"},{"id":"KD73","name":"MONROE","lat":"33.78","lon":"-83.7"},{"id":"KVAD","name":"MOODY AFB\/VALDOS","lat":"30.97","lon":"-83.2"},{"id":"KMGR","name":"MOULTRIE MUNI","lat":"31.08","lon":"-83.8"},{"id":"KMUL","name":"MOULTRIE\/SPENCE","lat":"31.13","lon":"-83.7"},{"id":"KCCO","name":"NEWNAN","lat":"33.32","lon":"-84.77"},{"id":"KPDK","name":"PEACHTREE\/DEKALB","lat":"33.88","lon":"-84.3"},{"id":"KFFC","name":"PEACHTREE CITY","lat":"33.35","lon":"-84.57"},{"id":"KPXE","name":"PERRY HOUSTON CN","lat":"32.52","lon":"-83.77"},{"id":"KPIM","name":"PINE MOUNTAIN","lat":"32.83","lon":"-84.88"},{"id":"KRMG","name":"ROME","lat":"34.35","lon":"-85.17"},{"id":"KOKZ","name":"SANDERSVILLE","lat":"32.97","lon":"-82.83"},{"id":"KSAV","name":"SAVANNAH","lat":"32.12","lon":"-81.2"},{"id":"KSVN","name":"SAVANNAH\/HUNTER","lat":"32.02","lon":"-81.15"},{"id":"KTBR","name":"STATESBORO","lat":"32.48","lon":"-81.73"},{"id":"KSBO","name":"SWAINSBORO","lat":"32.62","lon":"-82.37"},{"id":"KJYL","name":"SYLVANIA","lat":"32.65","lon":"-81.6"},{"id":"KTMA","name":"TIFTON","lat":"31.43","lon":"-83.48"},{"id":"KOPN","name":"THOMASTON UPSON","lat":"32.95","lon":"-84.27"},{"id":"KTVI","name":"THOMASVILLE","lat":"30.9","lon":"-83.88"},{"id":"KTOC","name":"TOCCOA","lat":"34.6","lon":"-83.3"},{"id":"KVLD","name":"VALDOSTA REGIONA","lat":"30.78","lon":"-83.27"},{"id":"KVDI","name":"VIDALIA MUNI","lat":"32.2","lon":"-82.37"},{"id":"KWRB","name":"WARNER ROBINS AF","lat":"32.62","lon":"-83.58"},{"id":"KIIY","name":"WASHINGTON","lat":"33.78","lon":"-82.82"},{"id":"KAYS","name":"WAYCROSS\/WARE CO","lat":"31.25","lon":"-82.4"},{"id":"KWDR","name":"WINDER\/BARROW","lat":"33.98","lon":"-83.67"},{"id":"KAXA","name":"ALGONA","lat":"43.07","lon":"-94.27"},{"id":"KAMW","name":"AMES","lat":"41.98","lon":"-93.62"},{"id":"KIKV","name":"ANKENY","lat":"41.68","lon":"-93.57"},{"id":"KAIO","name":"ATLANTIC","lat":"41.38","lon":"-95.03"},{"id":"KADU","name":"AUDUBON","lat":"41.7","lon":"-94.92"},{"id":"KBNW","name":"BOONE MUNI","lat":"42.03","lon":"-93.83"},{"id":"KBRL","name":"BURLINGTON","lat":"40.77","lon":"-91.13"},{"id":"KCIN","name":"CARROLL","lat":"42.03","lon":"-94.77"},{"id":"KCID","name":"CEDAR RAPIDS","lat":"41.88","lon":"-91.72"},{"id":"KTVK","name":"CENTERVILLE MUNI","lat":"40.68","lon":"-92.9"},{"id":"KCNC","name":"CHARITON","lat":"41.02","lon":"-93.37"},{"id":"KCCY","name":"CHARLES CITY","lat":"43.07","lon":"-92.62"},{"id":"KCKP","name":"CHEROKEE","lat":"42.73","lon":"-95.55"},{"id":"KICL","name":"CLARINDA","lat":"40.72","lon":"-95.02"},{"id":"KCAV","name":"CLARION","lat":"42.75","lon":"-93.77"},{"id":"KCWI","name":"CLINTON MUNI","lat":"41.82","lon":"-90.32"},{"id":"KCBF","name":"COUNCIL BLUFFS","lat":"41.27","lon":"-95.77"},{"id":"KCSQ","name":"CRESTON","lat":"41.02","lon":"-94.37"},{"id":"KDVN","name":"DAVENPORT\/QUAD C","lat":"41.62","lon":"-90.58"},{"id":"KDEH","name":"DECORAH","lat":"43.27","lon":"-91.72"},{"id":"KDNS","name":"DENISON","lat":"41.97","lon":"-95.37"},{"id":"KDSM","name":"DES MOINES","lat":"41.53","lon":"-93.67"},{"id":"KDBQ","name":"DUBUQUE","lat":"42.4","lon":"-90.7"},{"id":"KEST","name":"ESTHERVILLE","lat":"43.4","lon":"-94.75"},{"id":"KFFL","name":"FAIRFIELD","lat":"41.03","lon":"-91.97"},{"id":"KFXY","name":"FOREST CITY","lat":"43.23","lon":"-93.62"},{"id":"KFOD","name":"FORT DODGE","lat":"42.53","lon":"-94.17"},{"id":"KFSW","name":"FORT MADISON","lat":"40.67","lon":"-91.32"},{"id":"KGGI","name":"GRINNELL REG","lat":"41.72","lon":"-92.73"},{"id":"KHPT","name":"HAMPTON","lat":"42.58","lon":"-93.23"},{"id":"KHNR","name":"HARLAN MUNI","lat":"41.58","lon":"-95.33"},{"id":"KIIB","name":"INDEPENDENCE","lat":"42.45","lon":"-91.95"},{"id":"KIOW","name":"IOWA CITY","lat":"41.63","lon":"-91.55"},{"id":"KIFA","name":"IOWA FALLS MUNI","lat":"42.47","lon":"-93.27"},{"id":"KEOK","name":"KEOKUK MUNI","lat":"40.47","lon":"-91.42"},{"id":"KOXV","name":"KNOXVILLE","lat":"41.28","lon":"-93.12"},{"id":"KLWD","name":"LAMONI","lat":"40.63","lon":"-93.9"},{"id":"KLRJ","name":"LE MARS","lat":"42.77","lon":"-96.2"},{"id":"KMIW","name":"MARSHALLTOWN","lat":"42.12","lon":"-92.92"},{"id":"KMCW","name":"MASON CITY","lat":"43.15","lon":"-93.33"},{"id":"KSXK","name":"MAURICE","lat":"42.98","lon":"-96.17"},{"id":"KMXO","name":"MONTICELLO MUNI","lat":"42.22","lon":"-91.17"},{"id":"KMPZ","name":"MT PLEASANT","lat":"40.95","lon":"-91.52"},{"id":"KMUT","name":"MUSCATINE","lat":"41.37","lon":"-91.15"},{"id":"KTNU","name":"NEWTON MUNI","lat":"41.67","lon":"-93.02"},{"id":"KOLZ","name":"OELWEN","lat":"42.67","lon":"-91.97"},{"id":"KORC","name":"ORANGE CITY","lat":"42.97","lon":"-96.07"},{"id":"KI75","name":"OSCEOLA MUNI","lat":"41.05","lon":"-93.68"},{"id":"KOOA","name":"OSKALOOSA MUNI","lat":"41.23","lon":"-92.5"},{"id":"KOTM","name":"OTTUMWA","lat":"41.1","lon":"-92.45"},{"id":"KPEA","name":"PELLA","lat":"41.4","lon":"-92.95"},{"id":"KPRO","name":"PERRY MUNI","lat":"41.83","lon":"-94.17"},{"id":"KRDK","name":"RED OAK","lat":"41.02","lon":"-95.27"},{"id":"KSHL","name":"SHELDON","lat":"43.22","lon":"-95.82"},{"id":"KSDA","name":"SHENANDOAH MUNI","lat":"40.75","lon":"-95.42"},{"id":"KSUX","name":"SIOUX CITY","lat":"42.38","lon":"-96.38"},{"id":"KSPW","name":"SPENCER","lat":"43.17","lon":"-95.22"},{"id":"KSLB","name":"STORM LAKE","lat":"42.6","lon":"-95.22"},{"id":"KVTI","name":"VINTON","lat":"42.22","lon":"-92.02"},{"id":"KAWG","name":"WASHINGTON","lat":"41.27","lon":"-91.67"},{"id":"KALO","name":"WATERLOO","lat":"42.55","lon":"-92.4"},{"id":"KEBS","name":"WEBSTER CITY","lat":"42.42","lon":"-93.87"},{"id":"KBOI","name":"BOISE","lat":"43.57","lon":"-116.23"},{"id":"KBYI","name":"BURLEY","lat":"42.55","lon":"-113.77"},{"id":"K65S","name":"BONNERS FERRY","lat":"48.73","lon":"-116.3"},{"id":"KEUL","name":"CALDWELL","lat":"43.62","lon":"-116.62"},{"id":"KLLJ","name":"CHALLIS","lat":"44.52","lon":"-114.22"},{"id":"KCOE","name":"COEUR D'ALENE","lat":"47.77","lon":"-116.82"},{"id":"KDIJ","name":"DRIGGS REED MEM","lat":"43.75","lon":"-111.1"},{"id":"KGIC","name":"GRANGEVILLE","lat":"45.95","lon":"-116.12"},{"id":"KSUN","name":"HAILEY\/FRIEDMAN","lat":"43.5","lon":"-114.28"},{"id":"KIDA","name":"IDAHO FALLS","lat":"43.52","lon":"-112.07"},{"id":"KJER","name":"JEROME COUNTY","lat":"42.72","lon":"-114.45"},{"id":"KLWS","name":"LEWISTON","lat":"46.37","lon":"-117.02"},{"id":"KP69","name":"LOWELL","lat":"46.15","lon":"-115.6"},{"id":"KMLD","name":"MALAD CITY","lat":"42.17","lon":"-112.28"},{"id":"K77M","name":"MALTA (AWRS)","lat":"42.32","lon":"-113.32"},{"id":"KMYL","name":"MCCALL","lat":"44.9","lon":"-116.1"},{"id":"KMUO","name":"MOUNTAIN HOME","lat":"43.03","lon":"-115.87"},{"id":"KMLP","name":"MULLAN PASS","lat":"47.45","lon":"-115.67"},{"id":"KMAN","name":"NAMPA","lat":"43.58","lon":"-116.52"},{"id":"K1U7","name":"PARIS","lat":"42.25","lon":"-111.33"},{"id":"KPIH","name":"POCATELLO","lat":"42.92","lon":"-112.57"},{"id":"KRXE","name":"REXBURG","lat":"43.83","lon":"-111.8"},{"id":"KSMN","name":"SALMON\/LEMHI","lat":"45.12","lon":"-113.87"},{"id":"KU78","name":"SODA SPRINGS","lat":"42.63","lon":"-111.57"},{"id":"KS14","name":"SPENCER","lat":"44.35","lon":"-112.17"},{"id":"KSNT","name":"STANLEY","lat":"44.17","lon":"-114.93"},{"id":"KTWF","name":"TWIN FALLS","lat":"42.48","lon":"-114.48"},{"id":"KSZT","name":"SANDPOINT","lat":"48.3","lon":"-116.57"},{"id":"KALN","name":"ALTON\/ST LOUIS R","lat":"38.88","lon":"-90.03"},{"id":"KBMI","name":"BLOOMINGTON\/NORM","lat":"40.47","lon":"-88.92"},{"id":"KCPS","name":"CAHOKIA\/ST LOUIS","lat":"38.57","lon":"-90.15"},{"id":"KCIR","name":"CAIRO","lat":"37.07","lon":"-89.22"},{"id":"KMDH","name":"CARBONDALE\/MURPH","lat":"37.78","lon":"-89.25"},{"id":"KCUL","name":"CARMI MUNI","lat":"38.08","lon":"-88.12"},{"id":"KENL","name":"CENTRALIA","lat":"38.52","lon":"-89.1"},{"id":"KCMI","name":"CHAMPAIGN\/URBANA","lat":"40.03","lon":"-88.27"},{"id":"KMDW","name":"CHICAGO","lat":"41.78","lon":"-87.75"},{"id":"KORD","name":"CHICAGO O'HARE","lat":"41.98","lon":"-87.93"},{"id":"KARR","name":"CHICAGO\/AURORA","lat":"41.77","lon":"-88.48"},{"id":"KDPA","name":"CHICAGO\/DUPAGE","lat":"41.92","lon":"-88.25"},{"id":"KCGX","name":"CHICAGO\/MEIGS","lat":"41.87","lon":"-87.58"},{"id":"KIGQ","name":"CHICAGO\/LANSING","lat":"41.53","lon":"-87.53"},{"id":"KDNV","name":"DANVILLE","lat":"40.2","lon":"-87.6"},{"id":"KDEC","name":"DECATUR","lat":"39.83","lon":"-88.85"},{"id":"KDKB","name":"DE KALB","lat":"41.93","lon":"-88.7"},{"id":"KC73","name":"DIXON","lat":"41.83","lon":"-89.45"},{"id":"K1H2","name":"EFFINGHAM","lat":"39.07","lon":"-88.53"},{"id":"KFWC","name":"FAIRFIELD","lat":"38.38","lon":"-88.42"},{"id":"KFEP","name":"FREEPORT","lat":"42.25","lon":"-89.58"},{"id":"KFOA","name":"FLORA","lat":"38.67","lon":"-88.45"},{"id":"KGBG","name":"GALESBURG","lat":"40.93","lon":"-90.43"},{"id":"KGRE","name":"GREENVILLE","lat":"38.83","lon":"-89.38"},{"id":"KHSB","name":"HARRISBURG","lat":"37.82","lon":"-88.55"},{"id":"KIJX","name":"JACKSONVILLE","lat":"39.77","lon":"-90.25"},{"id":"KJOT","name":"JOLIET","lat":"41.52","lon":"-88.18"},{"id":"KIKK","name":"KANKAKEE","lat":"41.07","lon":"-87.85"},{"id":"KC75","name":"LACON","lat":"41.02","lon":"-89.38"},{"id":"KLWV","name":"LAWRENCEVILLE","lat":"38.77","lon":"-87.6"},{"id":"KAAA","name":"LINCOLN","lat":"40.17","lon":"-89.33"},{"id":"K3LF","name":"LITCHFIELD MUNI","lat":"39.17","lon":"-89.67"},{"id":"KMQB","name":"MACOMB MUNI","lat":"40.52","lon":"-90.65"},{"id":"KMWA","name":"MARION REGIONAL","lat":"37.77","lon":"-89.02"},{"id":"KMMO","name":"MARSEILLES","lat":"41.37","lon":"-88.67"},{"id":"KMTO","name":"MATTOON\/CHARLEST","lat":"39.47","lon":"-88.27"},{"id":"KM30","name":"METROPOLIS","lat":"37.18","lon":"-88.75"},{"id":"KMLI","name":"MOLINE\/QUAD CITY","lat":"41.45","lon":"-90.52"},{"id":"KC56","name":"MONEE","lat":"41.38","lon":"-87.68"},{"id":"KC09","name":"MORRIS-WASHBURN","lat":"41.43","lon":"-88.42"},{"id":"KAJG","name":"MOUNT CARMEL","lat":"38.62","lon":"-87.73"},{"id":"KI63","name":"MOUNT STERLING","lat":"39.98","lon":"-90.8"},{"id":"KMVN","name":"MOUNT VERNON","lat":"38.32","lon":"-88.87"},{"id":"KOLY","name":"OLNEY-NOBLE","lat":"38.72","lon":"-88.18"},{"id":"KPWK","name":"PALWAUKEE","lat":"42.12","lon":"-87.9"},{"id":"KPIA","name":"PEORIA","lat":"40.67","lon":"-89.68"},{"id":"KPRG","name":"PARIS","lat":"39.7","lon":"-87.67"},{"id":"KVYS","name":"PERU","lat":"41.35","lon":"-89.15"},{"id":"KPPQ","name":"PITTSFIELD","lat":"39.63","lon":"-90.78"},{"id":"KPNT","name":"PONTIAC","lat":"40.92","lon":"-88.62"},{"id":"KUIN","name":"QUINCY MUNI\/BALD","lat":"39.95","lon":"-91.2"},{"id":"KTIP","name":"RANTOUL","lat":"40.28","lon":"-88.15"},{"id":"KRSV","name":"ROBINSON MUNI","lat":"39.02","lon":"-87.65"},{"id":"KRFD","name":"ROCKFORD","lat":"42.2","lon":"-89.1"},{"id":"KRPJ","name":"ROCHELLE\/KORITZ","lat":"41.88","lon":"-89.08"},{"id":"KLOT","name":"ROMEOVILLE\/CHI","lat":"41.6","lon":"-88.1"},{"id":"KSLO","name":"SALEM\/LECKRONE","lat":"38.65","lon":"-88.97"},{"id":"KSFY","name":"SAVANNA\/TRITOWN","lat":"42.05","lon":"-90.12"},{"id":"K06C","name":"SCHAUMBURG","lat":"41.98","lon":"-88.1"},{"id":"KBLV","name":"SCOTT AFB\/BELLEV","lat":"38.53","lon":"-89.83"},{"id":"KSAR","name":"SPARTA","lat":"38.15","lon":"-89.7"},{"id":"KSPI","name":"SPRINGFIELD","lat":"39.85","lon":"-89.68"},{"id":"KSQI","name":"STERLING ROCKFAL","lat":"41.75","lon":"-89.67"},{"id":"KTAZ","name":"TAYLORVILLE","lat":"39.53","lon":"-89.33"},{"id":"KVLA","name":"VANDALIA","lat":"38.98","lon":"-89.17"},{"id":"KUGN","name":"WAUKEGAN","lat":"42.42","lon":"-87.87"},{"id":"KAID","name":"ANDERSON MUNICIP","lat":"40.12","lon":"-85.62"},{"id":"KANQ","name":"ANGOLA","lat":"41.63","lon":"-85.08"},{"id":"KHBE","name":"ATTERBURY","lat":"39.33","lon":"-86.03"},{"id":"KGWB","name":"AUBURN DEKALB C","lat":"41.3","lon":"-85.07"},{"id":"KBMG","name":"BLOOMINGTON","lat":"39.15","lon":"-86.62"},{"id":"KBAK","name":"COLUMBUS\/BALKALA","lat":"39.27","lon":"-85.9"},{"id":"KCFJ","name":"CRAWFORDSVILLE","lat":"39.98","lon":"-86.92"},{"id":"KDCY","name":"DAVIESS COUNTY","lat":"38.7","lon":"-87.13"},{"id":"KEKM","name":"ELKHART MUNICIPA","lat":"41.72","lon":"-86.0"},{"id":"KEVV","name":"EVANSVILLE","lat":"38.05","lon":"-87.52"},{"id":"KFWA","name":"FORT WAYNE","lat":"40.98","lon":"-85.18"},{"id":"KFKR","name":"FRANKFORT","lat":"40.27","lon":"-86.57"},{"id":"KFRH","name":"FRENCH LICK","lat":"38.5","lon":"-86.63"},{"id":"KGYY","name":"GARY REGIONAL","lat":"41.62","lon":"-87.42"},{"id":"KGSH","name":"GOSHEN","lat":"41.53","lon":"-85.78"},{"id":"K4I7","name":"GREENCASTLE","lat":"39.63","lon":"-86.82"},{"id":"KGPC","name":"GREENCASTLE","lat":"39.63","lon":"-86.82"},{"id":"KHFY","name":"GREENWOOD","lat":"39.63","lon":"-86.08"},{"id":"KGUS","name":"GRISSOM AFB\/PERU","lat":"40.63","lon":"-86.15"},{"id":"K1II","name":"HIMSEL AAF","lat":"39.33","lon":"-86.03"},{"id":"KHNB","name":"HUNTINGBURG","lat":"38.25","lon":"-86.95"},{"id":"KHHG","name":"HUNTINGTON","lat":"40.85","lon":"-85.45"},{"id":"KEYE","name":"INDIANAPOLIS","lat":"39.83","lon":"-86.3"},{"id":"KIND","name":"INDIANAPOLIS","lat":"39.72","lon":"-86.3"},{"id":"KTYQ","name":"INDIANAPOLIS EXC","lat":"40.03","lon":"-86.25"},{"id":"KMQJ","name":"INDIANAPOLIS REG","lat":"39.85","lon":"-85.9"},{"id":"KJVY","name":"JEFFERSONVILLE","lat":"38.37","lon":"-85.73"},{"id":"KC62","name":"KENDALLVILLE","lat":"41.47","lon":"-85.25"},{"id":"KOXI","name":"KNOX STARKE CTY","lat":"41.33","lon":"-86.67"},{"id":"KOKK","name":"KOKOMO","lat":"40.53","lon":"-86.07"},{"id":"KLAF","name":"LAFAYETTE","lat":"40.42","lon":"-86.93"},{"id":"KPPO","name":"LA PORTE","lat":"41.57","lon":"-86.73"},{"id":"KGGP","name":"LOGANSPORT","lat":"40.72","lon":"-86.37"},{"id":"KIMS","name":"MADISON","lat":"38.75","lon":"-85.47"},{"id":"KMZZ","name":"MARION MUNI","lat":"40.48","lon":"-85.68"},{"id":"KMGC","name":"MICHIGAN CITY","lat":"41.7","lon":"-86.82"},{"id":"KMCX","name":"MONTICELLO\/WHITE","lat":"40.72","lon":"-86.77"},{"id":"KMIE","name":"MUNCIE","lat":"40.23","lon":"-85.4"},{"id":"KPLD","name":"PORTLAND","lat":"40.45","lon":"-84.98"},{"id":"KC65","name":"PLYMOUTH","lat":"41.37","lon":"-86.3"},{"id":"KRZL","name":"RENSSELAER","lat":"40.95","lon":"-87.18"},{"id":"KRID","name":"RICHMOND","lat":"39.75","lon":"-84.85"},{"id":"KRCR","name":"ROCHESTER","lat":"41.07","lon":"-86.18"},{"id":"KGEZ","name":"SHELBYVILLE","lat":"39.58","lon":"-85.8"},{"id":"KSBN","name":"SOUTH BEND","lat":"41.7","lon":"-86.32"},{"id":"KHUF","name":"TERRE HAUTE","lat":"39.45","lon":"-87.3"},{"id":"KVPZ","name":"VALPARAISO","lat":"41.45","lon":"-87.0"},{"id":"KASW","name":"WARSAW MUNI","lat":"41.27","lon":"-85.83"},{"id":"K3AU","name":"AUGUSTA","lat":"37.67","lon":"-97.08"},{"id":"KK88","name":"BASSETT","lat":"37.87","lon":"-95.38"},{"id":"K1K1","name":"BENTON","lat":"37.77","lon":"-97.12"},{"id":"KUKL","name":"BURLINGTON","lat":"38.3","lon":"-95.73"},{"id":"KCNU","name":"CHANUTE","lat":"37.67","lon":"-95.48"},{"id":"KCFV","name":"COFFEYVILLE","lat":"37.08","lon":"-95.57"},{"id":"KCNK","name":"CONCORDIA","lat":"39.55","lon":"-97.65"},{"id":"KDDC","name":"DODGE CITY","lat":"37.77","lon":"-99.97"},{"id":"KEQA","name":"ELDORADO","lat":"37.78","lon":"-96.82"},{"id":"KEHA","name":"ELKHART","lat":"37.0","lon":"-101.9"},{"id":"KEMP","name":"EMPORIA","lat":"38.33","lon":"-96.2"},{"id":"KFLV","name":"FORT LEAVENWORTH","lat":"39.37","lon":"-94.92"},{"id":"KFRI","name":"FT RILEY\/MARSHAL","lat":"39.03","lon":"-96.77"},{"id":"KGCK","name":"GARDEN CITY","lat":"37.92","lon":"-100.72"},{"id":"KK68","name":"GARNETT","lat":"38.28","lon":"-95.22"},{"id":"KGLD","name":"GOODLAND","lat":"39.37","lon":"-101.7"},{"id":"KGBD","name":"GREAT BEND","lat":"38.35","lon":"-98.87"},{"id":"K8K2","name":"HARPER","lat":"37.28","lon":"-98.05"},{"id":"KHYS","name":"HAYS MUNI","lat":"38.85","lon":"-99.27"},{"id":"KHLC","name":"HILL CITY","lat":"39.37","lon":"-99.83"},{"id":"KHUT","name":"HUTCHINSON","lat":"38.07","lon":"-97.87"},{"id":"KHQG","name":"HUGOTON","lat":"37.17","lon":"-101.37"},{"id":"KIDP","name":"INDEPENDENCE","lat":"37.17","lon":"-95.78"},{"id":"KJN8","name":"JENNINGS","lat":"39.68","lon":"-100.3"},{"id":"KJHN","name":"JOHNSON CITY","lat":"37.58","lon":"-101.73"},{"id":"KLWC","name":"LAWRENCE","lat":"39.02","lon":"-95.22"},{"id":"K3K7","name":"LEOTI\/HOARD MEML","lat":"38.45","lon":"-101.35"},{"id":"KLBL","name":"LIBERAL","lat":"37.03","lon":"-100.97"},{"id":"KLYO","name":"LYONS","lat":"38.35","lon":"-98.23"},{"id":"KMHK","name":"MANHATTAN","lat":"39.13","lon":"-96.68"},{"id":"KMYZ","name":"MARYSVILLE","lat":"39.85","lon":"-96.63"},{"id":"KIAB","name":"MCCONNELL AFB","lat":"37.62","lon":"-97.27"},{"id":"KP28","name":"MEDICINE LODGE","lat":"37.28","lon":"-98.55"},{"id":"KAL8","name":"NEW ALMELO","lat":"39.6","lon":"-100.12"},{"id":"KEWK","name":"NEWTON","lat":"38.03","lon":"-97.27"},{"id":"KOEL","name":"OAKLEY","lat":"39.12","lon":"-100.82"},{"id":"KIXD","name":"OLATHE\/INDUSTRIA","lat":"38.82","lon":"-94.88"},{"id":"KOJC","name":"OLATHE\/EXECUTIVE","lat":"38.85","lon":"-94.73"},{"id":"KOWI","name":"OTTAWA","lat":"38.53","lon":"-95.25"},{"id":"KPPF","name":"PARSONS","lat":"37.33","lon":"-95.5"},{"id":"KPTS","name":"PITTSBURG","lat":"37.45","lon":"-94.73"},{"id":"KPTT","name":"PRATT INDUST","lat":"37.7","lon":"-98.75"},{"id":"KRSL","name":"RUSSELL","lat":"38.87","lon":"-98.82"},{"id":"KSLN","name":"SALINA","lat":"38.78","lon":"-97.65"},{"id":"KTQK","name":"SCOTT CITY","lat":"38.47","lon":"-100.88"},{"id":"KFOE","name":"TOPEKA\/FORBES","lat":"38.93","lon":"-95.65"},{"id":"KTOP","name":"TOPEKA","lat":"39.07","lon":"-95.63"},{"id":"KWK6","name":"WAKEENEY","lat":"39.03","lon":"-99.88"},{"id":"KICT","name":"WICHITA","lat":"37.65","lon":"-97.43"},{"id":"KAAO","name":"WICHITA\/JABARA","lat":"37.75","lon":"-97.22"},{"id":"KBEC","name":"WICHITA\/BEECH","lat":"37.7","lon":"-97.22"},{"id":"KWLD","name":"WINFIELD\/ARKANSA","lat":"37.17","lon":"-97.03"},{"id":"KOIN","name":"OBERLIN","lat":"39.83","lon":"-100.53"},{"id":"K19S","name":"SUBLETTE","lat":"37.48","lon":"-100.83"},{"id":"K3K3","name":"SYRACUSE","lat":"38.0","lon":"-101.75"},{"id":"KNRN","name":"NORTON","lat":"39.85","lon":"-99.9"},{"id":"KTRB","name":"TRIBUNE","lat":"38.45","lon":"-101.75"},{"id":"KCBK","name":"COLBY","lat":"39.43","lon":"-101.05"},{"id":"KGNL","name":"GRINNELL","lat":"39.13","lon":"-100.62"},{"id":"KHOX","name":"HOXIE","lat":"39.37","lon":"-100.43"},{"id":"KPHG","name":"PHILLIPSBURG","lat":"39.73","lon":"-99.32"},{"id":"KHD7","name":"HERNDON","lat":"39.92","lon":"-100.83"},{"id":"KLG5","name":"LOGAN","lat":"39.67","lon":"-99.57"},{"id":"KSYF","name":"ST FRANCIS","lat":"39.77","lon":"-101.8"},{"id":"KK78","name":"ABILENE","lat":"38.9","lon":"-97.23"},{"id":"K9K7","name":"ELLSWORTH","lat":"38.75","lon":"-98.23"},{"id":"K13K","name":"EUREKA","lat":"37.85","lon":"-96.3"},{"id":"KFSK","name":"FORT SCOTT","lat":"37.8","lon":"-94.77"},{"id":"K2K3","name":"JOHNSON","lat":"37.58","lon":"-101.73"},{"id":"K9K8","name":"KINGMAN","lat":"37.67","lon":"-98.12"},{"id":"KMPR","name":"MCPHERSON","lat":"38.35","lon":"-97.68"},{"id":"KK82","name":"SMITH CENTER","lat":"39.77","lon":"-98.8"},{"id":"KULS","name":"ULYSSES","lat":"37.6","lon":"-101.37"},{"id":"KEGT","name":"WELLINGTON","lat":"37.32","lon":"-97.38"},{"id":"KDWU","name":"ASHLAND","lat":"38.55","lon":"-82.73"},{"id":"KBRY","name":"BARDSTOWN","lat":"37.82","lon":"-85.5"},{"id":"KSJS","name":"BIG SANDY RGNL","lat":"37.75","lon":"-82.63"},{"id":"KBWG","name":"BOWLING GREE","lat":"36.97","lon":"-86.42"},{"id":"KAAS","name":"CAMPBELLSVILLE","lat":"37.35","lon":"-85.32"},{"id":"KCVG","name":"COVINGTON","lat":"39.05","lon":"-84.67"},{"id":"KDVK","name":"DANVILLE","lat":"37.58","lon":"-84.77"},{"id":"KHOP","name":"HOPKINSVILLE","lat":"36.67","lon":"-87.5"},{"id":"KK62","name":"FALMOUTH","lat":"38.7","lon":"-84.4"},{"id":"KFGX","name":"FLEMINGSBURG","lat":"38.55","lon":"-83.75"},{"id":"KFTK","name":"FORT KNOX\/GODMAN","lat":"37.88","lon":"-85.97"},{"id":"KFFT","name":"FRANKFORT","lat":"38.18","lon":"-84.9"},{"id":"K27K","name":"GEORGETOWN","lat":"38.23","lon":"-84.43"},{"id":"KGLW","name":"GLASGOW","lat":"37.03","lon":"-85.95"},{"id":"KM21","name":"GREENVILLE","lat":"37.22","lon":"-87.15"},{"id":"KI35","name":"HARLAN","lat":"36.87","lon":"-83.37"},{"id":"KEHR","name":"HENDERSON CITY","lat":"37.82","lon":"-87.67"},{"id":"K6I2","name":"LEBANON-SPRINGFI","lat":"37.63","lon":"-85.25"},{"id":"KKY8","name":"LEWISPORT","lat":"37.95","lon":"-86.87"},{"id":"KLEX","name":"LEXINGTON","lat":"38.03","lon":"-84.6"},{"id":"KLOZ","name":"LONDON","lat":"37.08","lon":"-84.07"},{"id":"KSDF","name":"LOUISVILLE","lat":"38.18","lon":"-85.73"},{"id":"KLOU","name":"LOUISVILLE\/BOWMN","lat":"38.22","lon":"-85.67"},{"id":"KLMK","name":"LOUISVILLE\/WFO","lat":"38.23","lon":"-85.67"},{"id":"K2I0","name":"MADISONVILLE","lat":"37.35","lon":"-87.4"},{"id":"K5M9","name":"MARION","lat":"37.33","lon":"-88.12"},{"id":"KM25","name":"MAYFIELD","lat":"36.77","lon":"-88.58"},{"id":"K1A6","name":"MIDDLESBORO-BELL","lat":"36.62","lon":"-83.73"},{"id":"KEKQ","name":"MONTICELLO\/WAYNE","lat":"36.85","lon":"-84.85"},{"id":"KM97","name":"MOREHEAD","lat":"38.22","lon":"-83.58"},{"id":"KSYM","name":"MOREHEAD","lat":"38.22","lon":"-83.58"},{"id":"KIOB","name":"MOUNT STERLING","lat":"38.05","lon":"-83.98"},{"id":"KCEY","name":"MURRAY KYLE-OAK","lat":"36.67","lon":"-88.37"},{"id":"KJKL","name":"NOCTOR\/JACKSON","lat":"37.6","lon":"-83.32"},{"id":"KOWB","name":"OWENSBORO\/DAVIES","lat":"37.72","lon":"-87.17"},{"id":"KPAH","name":"PADUCAH","lat":"37.07","lon":"-88.77"},{"id":"KPBX","name":"PIKEVILLE","lat":"37.57","lon":"-82.57"},{"id":"KI39","name":"RICHMOND\/MADISON","lat":"37.63","lon":"-84.33"},{"id":"KRGA","name":"RICHMOND","lat":"37.63","lon":"-84.33"},{"id":"KSME","name":"SOMERSET","lat":"37.05","lon":"-84.62"},{"id":"KTZV","name":"TOMPKINSVILLE","lat":"36.73","lon":"-85.65"},{"id":"KBYL","name":"WILLIAMSBURG","lat":"36.8","lon":"-84.2"},{"id":"KIYA","name":"ABBEVILLE CC MEM","lat":"29.98","lon":"-92.08"},{"id":"KAEX","name":"ALEXANDRIA","lat":"31.33","lon":"-92.57"},{"id":"KESF","name":"ALEXANDRIA","lat":"31.4","lon":"-92.28"},{"id":"K7R3","name":"AMELIA\/LAKE PALO","lat":"29.68","lon":"-91.08"},{"id":"KAUD","name":"AUDUBON PARK","lat":"29.93","lon":"-90.13"},{"id":"KBAD","name":"BARKSDALE AFB","lat":"32.5","lon":"-93.67"},{"id":"KBQP","name":"BASTROP MOREHOUS","lat":"32.75","lon":"-91.88"},{"id":"KBTR","name":"BATON ROUGE","lat":"30.53","lon":"-91.15"},{"id":"KBXA","name":"BOGALUSA CARR F","lat":"30.82","lon":"-89.87"},{"id":"KBVE","name":"BOOTHVILLE","lat":"29.32","lon":"-89.4"},{"id":"KLNQ","name":"BOOTHVILLE HEL","lat":"29.35","lon":"-89.43"},{"id":"K7R5","name":"CAMERON HELIPORT","lat":"29.77","lon":"-93.28"},{"id":"KCVW","name":"CAMERON","lat":"29.78","lon":"-93.3"},{"id":"KCWF","name":"CHENAULT\/LK CHAS","lat":"30.22","lon":"-93.15"},{"id":"K5R8","name":"DEQUINCEY IND AR","lat":"30.43","lon":"-93.47"},{"id":"KDRI","name":"DERIDDER\/FSS","lat":"30.83","lon":"-93.33"},{"id":"K3B6","name":"EUGENE IS 330","lat":"28.23","lon":"-91.68"},{"id":"KPOE","name":"FORT POLK FR","lat":"31.05","lon":"-93.2"},{"id":"KAQV","name":"PEASON RIDG\/POLK","lat":"31.4","lon":"-93.3"},{"id":"KBKB","name":"FULLERTON\/POLK","lat":"31.0","lon":"-92.92"},{"id":"KDNK","name":"SELF STRIP\/POLK","lat":"31.12","lon":"-93.15"},{"id":"K9F2","name":"FOURCHON (SAWRS)","lat":"29.1","lon":"-90.2"},{"id":"KXPY","name":"PORT FOURCHON","lat":"29.12","lon":"-90.2"},{"id":"KGAO","name":"GALLIANO","lat":"29.45","lon":"-90.27"},{"id":"K2GL","name":"GALLIANO HELIPRT","lat":"29.42","lon":"-90.3"},{"id":"K2LS","name":"GALLIANO HELIPRT","lat":"29.42","lon":"-90.3"},{"id":"KSQE","name":"GOMEX 354","lat":"28.07","lon":"-90.82"},{"id":"KREG","name":"GONZALES","lat":"30.17","lon":"-90.93"},{"id":"K3L4","name":"GRAND CHENIER","lat":"29.8","lon":"-92.8"},{"id":"KAXO","name":"GRAND ISLE (SAWR","lat":"29.25","lon":"-89.97"},{"id":"KXCN","name":"GREEN CANYON 184","lat":"27.77","lon":"-91.52"},{"id":"K28K","name":"GREEN CANYON 52","lat":"27.88","lon":"-91.5"},{"id":"KHDC","name":"HAMMOND","lat":"30.52","lon":"-90.42"},{"id":"KH02","name":"HIGH ISLAND 334A","lat":"28.1","lon":"-93.4"},{"id":"KH08","name":"HIGH IS. 264C","lat":"28.47","lon":"-93.73"},{"id":"KH78","name":"OFFSHORE","lat":"28.18","lon":"-88.48"},{"id":"KHUM","name":"HOUMA TERREBONNE","lat":"29.57","lon":"-90.67"},{"id":"K7R4","name":"INTRACOASTAL CIT","lat":"29.77","lon":"-92.12"},{"id":"K3R7","name":"JENNINGS","lat":"30.25","lon":"-92.67"},{"id":"KLFT","name":"LAFAYETTE","lat":"30.2","lon":"-92.0"},{"id":"KLCH","name":"LAKE CHARLES","lat":"30.13","lon":"-93.22"},{"id":"K3F3","name":"MANFIELD","lat":"32.07","lon":"-93.77"},{"id":"K5LA","name":"MARATHON-VENICE","lat":"29.28","lon":"-89.37"},{"id":"KMNE","name":"MINDEN","lat":"32.65","lon":"-93.3"},{"id":"KDSF","name":"MISSISSIPPI CANY","lat":"28.35","lon":"-88.27"},{"id":"KMLU","name":"MONROE","lat":"32.52","lon":"-92.03"},{"id":"KIER","name":"NATCHITOCHES","lat":"31.73","lon":"-93.1"},{"id":"KARA","name":"NEW IBERIA","lat":"30.03","lon":"-91.88"},{"id":"KNEW","name":"NEW ORLEANS\/LAKE","lat":"30.05","lon":"-90.03"},{"id":"KNBG","name":"NEW ORLEANS NAS","lat":"29.82","lon":"-90.02"},{"id":"KMSY","name":"NEW ORLEANS\/INTL","lat":"30.0","lon":"-90.25"},{"id":"KVSH","name":"NEW ORLEANS\/SUPE","lat":"29.95","lon":"-90.07"},{"id":"K7N0","name":"NEW ORLEANS\/SUPE","lat":"29.95","lon":"-90.07"},{"id":"KHZR","name":"NEW ROADS","lat":"30.72","lon":"-91.48"},{"id":"KACP","name":"OAKDALE ALLEN P","lat":"30.75","lon":"-92.68"},{"id":"KOPL","name":"OPELOUSAS","lat":"30.55","lon":"-92.1"},{"id":"K1L0","name":"RESERVE","lat":"30.08","lon":"-90.58"},{"id":"KAPS","name":"RESERVE","lat":"30.08","lon":"-90.58"},{"id":"KRSN","name":"RUSTON REGIONAL","lat":"32.52","lon":"-92.58"},{"id":"KPTN","name":"PATTERSON MEMORI","lat":"29.72","lon":"-91.32"},{"id":"KP92","name":"SALT POINT","lat":"29.57","lon":"-91.53"},{"id":"KGSM","name":"SHIP SHOAL 207","lat":"28.53","lon":"-90.98"},{"id":"KDTN","name":"SHREVEPORT\/DWNTN","lat":"32.55","lon":"-93.75"},{"id":"KSHV","name":"SHREVEPORT","lat":"32.45","lon":"-93.83"},{"id":"KASD","name":"SLIDELL 22","lat":"30.35","lon":"-89.82"},{"id":"KSRN","name":"S MARSH ISL 268","lat":"29.12","lon":"-91.87"},{"id":"K7R8","name":"S MARSH ISLAND","lat":"28.3","lon":"-91.97"},{"id":"KS58","name":"SOUTH TIMBALIER","lat":"28.52","lon":"-90.57"},{"id":"KUXL","name":"SULPHUR","lat":"30.13","lon":"-93.38"},{"id":"KTVR","name":"TALLULAH\/VICKSBU","lat":"32.35","lon":"-91.03"},{"id":"K0R4","name":"VIDALIA\/CONCORDI","lat":"31.57","lon":"-91.5"},{"id":"K1B7","name":"VENICE HELIPORT","lat":"29.35","lon":"-89.43"},{"id":"KE12","name":"E. CAMERON 346","lat":"28.07","lon":"-92.7"},{"id":"KW60","name":"W. CAMERON 560","lat":"28.15","lon":"-93.35"},{"id":"K4CO","name":"PHI OIL PLATF","lat":"29.78","lon":"-93.18"},{"id":"K4C0","name":"PHI OIL PLATF","lat":"29.78","lon":"-93.18"},{"id":"KGHB","name":"GARDEN BANKS172","lat":"27.83","lon":"-91.98"},{"id":"KL38","name":"GONZALES","lat":"30.17","lon":"-90.93"},{"id":"KCYD","name":"MISS CANYAN 807","lat":"28.17","lon":"-89.22"},{"id":"KIPN","name":"INDEPEDENCE 920","lat":"28.08","lon":"-87.98"},{"id":"KGBK","name":"MAGNOLIA OILP","lat":"27.2","lon":"-92.2"},{"id":"KSPR","name":"SHIP SHOAL178","lat":"28.6","lon":"-91.2"},{"id":"KMDJ","name":"MISS CANYON 311A","lat":"28.65","lon":"-89.8"},{"id":"KEHC","name":"E CAMERON278OILP","lat":"28.43","lon":"-92.88"},{"id":"KVBS","name":"SABINE 13B  OILP","lat":"29.48","lon":"-93.63"},{"id":"KSCF","name":"S MARSH268  OILP","lat":"29.12","lon":"-91.87"},{"id":"KVNP","name":"VERMILLION26OILP","lat":"29.47","lon":"-92.37"},{"id":"KEIR","name":"EUGENE I 215OILP","lat":"28.63","lon":"-91.48"},{"id":"KATP","name":"ATLANTIS    OILP","lat":"27.2","lon":"-90.03"},{"id":"KCMB","name":"E CAMERON 47JP","lat":"29.43","lon":"-92.98"},{"id":"KGRY","name":"GREEN CANYON 338","lat":"27.63","lon":"-90.45"},{"id":"K18H","name":"KEATHLEY C 875","lat":"26.13","lon":"-92.03"},{"id":"KXIH","name":"HIGH IS. 179A","lat":"29.18","lon":"-94.52"},{"id":"KVKY","name":"MAIN PASS 289C","lat":"29.25","lon":"-88.43"},{"id":"KMIS","name":"MAIN PASS 140B","lat":"29.3","lon":"-88.85"},{"id":"KSTZ","name":"S TIMBALIER 301B","lat":"28.17","lon":"-90.67"},{"id":"KVQT","name":"VERMILION 331","lat":"28.27","lon":"-92.27"},{"id":"KIKT","name":"MISS CANYON 474","lat":"28.52","lon":"-88.28"},{"id":"KWBF","name":"WALKER RIDGE 29","lat":"26.93","lon":"-90.5"},{"id":"KBED","name":"BEDFORD","lat":"42.47","lon":"-71.3"},{"id":"KBVY","name":"BEVERLY","lat":"42.58","lon":"-70.92"},{"id":"KBOS","name":"BOSTON","lat":"42.37","lon":"-71.02"},{"id":"KCHH","name":"CHATHAM","lat":"41.67","lon":"-69.97"},{"id":"KCQX","name":"CHATHAM","lat":"41.68","lon":"-70.0"},{"id":"KCEF","name":"CHICOPEE\/WESTOVE","lat":"42.2","lon":"-72.52"},{"id":"    ","name":"CHICOPEE\/WESTOVE","lat":"42.2","lon":"-72.52"},{"id":"KMQE","name":"EAST MILTON","lat":"42.22","lon":"-71.12"},{"id":"KFMH","name":"FALMOUTH\/OTIS AB","lat":"41.63","lon":"-70.52"},{"id":"KFIT","name":"FITCHBURG","lat":"42.55","lon":"-71.75"},{"id":"KHYA","name":"HYANNIS","lat":"41.67","lon":"-70.27"},{"id":"KLWM","name":"LAWRENCE","lat":"42.72","lon":"-71.13"},{"id":"KGHG","name":"MARSHFIELD","lat":"42.1","lon":"-70.67"},{"id":"KMVY","name":"MARTHAS VINEYARD","lat":"41.4","lon":"-70.62"},{"id":"KACK","name":"NANTUCKET","lat":"41.25","lon":"-70.07"},{"id":"KEWB","name":"NEW BEDFORD","lat":"41.68","lon":"-70.95"},{"id":"KAQW","name":"NORTH ADAMS","lat":"42.7","lon":"-73.17"},{"id":"KOWD","name":"NORWOOD","lat":"42.18","lon":"-71.17"},{"id":"KORE","name":"ORANGE","lat":"42.57","lon":"-72.28"},{"id":"KPSF","name":"PITTSFIELD","lat":"42.43","lon":"-73.28"},{"id":"KPYM","name":"PLYMOUTH","lat":"41.92","lon":"-70.73"},{"id":"KPVC","name":"PROVINCETOWN","lat":"42.07","lon":"-70.22"},{"id":"KNZW","name":"SOUTH WEYMOUTH","lat":"42.13","lon":"-70.92"},{"id":"KTAN","name":"TAUNTON","lat":"41.88","lon":"-71.02"},{"id":"KBAF","name":"WESTFIELD","lat":"42.17","lon":"-72.72"},{"id":"KORH","name":"WORCESTER","lat":"42.27","lon":"-71.87"},{"id":"KAPG","name":"ABERDEEN\/PHILLIP","lat":"39.47","lon":"-76.17"},{"id":"KNAK","name":"ANNAPOLIS\/NAVAL","lat":"38.98","lon":"-76.48"},{"id":"KADW","name":"ANDREWS AFB","lat":"38.82","lon":"-76.87"},{"id":"KBWI","name":"BALTO\/WASH INTL","lat":"39.17","lon":"-76.68"},{"id":"KMTN","name":"BALTIMORE\/MARTIN","lat":"39.32","lon":"-76.42"},{"id":"KDMH","name":"BALTIMORE\/DWNTWN","lat":"39.28","lon":"-76.62"},{"id":"KCGE","name":"CAMBRIDGE-DORCH","lat":"38.53","lon":"-76.03"},{"id":"KRSP","name":"NSF THURMONT","lat":"39.65","lon":"-77.47"},{"id":"KDMW","name":"CARROLL CNTY","lat":"39.6","lon":"-77.0"},{"id":"KW32","name":"CLINTON","lat":"38.75","lon":"-76.93"},{"id":"KCGS","name":"COLLEGE PARK","lat":"38.98","lon":"-76.92"},{"id":"KCBE","name":"CUMBERLAND REG","lat":"39.62","lon":"-78.77"},{"id":"KESN","name":"EASTON\/NEWNAM","lat":"38.8","lon":"-76.07"},{"id":"KFME","name":"FORT MEADE","lat":"39.08","lon":"-76.77"},{"id":"KJWX","name":"FORT RITCHIE","lat":"39.72","lon":"-77.42"},{"id":"KFDK","name":"FREDERICK","lat":"39.42","lon":"-77.37"},{"id":"K2G4","name":"GARRETT CO","lat":"39.58","lon":"-79.33"},{"id":"KGAI","name":"GAITHERSBURG","lat":"39.17","lon":"-77.17"},{"id":"KHGR","name":"HAGERSTOWN","lat":"39.7","lon":"-77.73"},{"id":"KOXB","name":"OCEAN CITY","lat":"38.32","lon":"-75.12"},{"id":"KNHK","name":"PATUXENT RIVER","lat":"38.27","lon":"-76.4"},{"id":"KRJD","name":"RIDGELY","lat":"38.97","lon":"-75.87"},{"id":"KSBY","name":"SALISBURY","lat":"38.33","lon":"-75.5"},{"id":"KW29","name":"STEVENSVILLE","lat":"38.98","lon":"-76.33"},{"id":"K2W6","name":"ST MARYS (DUKE)","lat":"38.32","lon":"-76.55"},{"id":"KNUI","name":"WEBSTER NAVAL","lat":"38.15","lon":"-76.43"},{"id":"KLEW","name":"AUBURN\/LEWISTON","lat":"44.03","lon":"-70.27"},{"id":"KAUG","name":"AUGUSTA","lat":"44.32","lon":"-69.8"},{"id":"KBGR","name":"BANGOR","lat":"44.8","lon":"-68.82"},{"id":"KBHB","name":"BAR HARBOR","lat":"44.45","lon":"-68.37"},{"id":"KNHZ","name":"BRUNSWICK NAS","lat":"43.87","lon":"-69.92"},{"id":"KCAR","name":"CARIBOU","lat":"46.87","lon":"-68.02"},{"id":"KB21","name":"CARRABASSETT","lat":"45.08","lon":"-70.22"},{"id":"K40B","name":"CLAYTON LAKE","lat":"46.62","lon":"-69.52"},{"id":"KEPM","name":"EASTPORT","lat":"44.92","lon":"-67.02"},{"id":"KFVE","name":"FRENCHVILLE","lat":"47.28","lon":"-68.3"},{"id":"KIZG","name":"FRYEBURG","lat":"43.98","lon":"-70.95"},{"id":"KGNR","name":"GREENVILLE","lat":"45.47","lon":"-69.55"},{"id":"KHUL","name":"HOULTON","lat":"46.12","lon":"-67.8"},{"id":"KMLT","name":"MILLINOCKET","lat":"45.65","lon":"-68.7"},{"id":"KOLD","name":"OLD TOWN\/DEWITT","lat":"44.95","lon":"-68.67"},{"id":"KPWM","name":"PORTLAND","lat":"43.65","lon":"-70.3"},{"id":"KPQI","name":"PRESQUE ISLE","lat":"46.67","lon":"-68.03"},{"id":"KRKD","name":"ROCKLAND\/KNOX","lat":"44.07","lon":"-69.08"},{"id":"KSFM","name":"SANFORD MUNI","lat":"43.38","lon":"-70.72"},{"id":"KWVL","name":"WATERVILLE","lat":"44.52","lon":"-69.67"},{"id":"KIWI","name":"WISCASSET","lat":"43.97","lon":"-69.72"},{"id":"KADG","name":"ADRIAN","lat":"41.87","lon":"-84.08"},{"id":"KAMN","name":"ALMA","lat":"43.32","lon":"-84.68"},{"id":"KAPN","name":"ALPENA","lat":"45.07","lon":"-83.57"},{"id":"KARB","name":"ANN ARBOR","lat":"42.22","lon":"-83.73"},{"id":"KBAX","name":"BAD AXE","lat":"43.78","lon":"-82.98"},{"id":"KBTL","name":"BATTLE CREEK","lat":"42.32","lon":"-85.23"},{"id":"KACB","name":"BELLAIRE","lat":"44.98","lon":"-85.2"},{"id":"KSJX","name":"BEAVER ISLAND","lat":"45.7","lon":"-85.57"},{"id":"KBEH","name":"BENTON HARBOR","lat":"42.13","lon":"-86.42"},{"id":"KRQB","name":"BIG RAPIDS","lat":"43.72","lon":"-85.5"},{"id":"KCAD","name":"CADILLAC\/WEXFORD","lat":"44.27","lon":"-85.42"},{"id":"KCFS","name":"CARO\/TUSCOLA","lat":"43.47","lon":"-83.45"},{"id":"KCVX","name":"CHARLEVOIX","lat":"45.3","lon":"-85.27"},{"id":"KFPK","name":"CHARLOTTE","lat":"42.57","lon":"-84.82"},{"id":"KSLH","name":"CHEBOYGAN","lat":"45.65","lon":"-84.52"},{"id":"KCIU","name":"CHIPPEWA INTL","lat":"46.25","lon":"-84.47"},{"id":"KOEB","name":"COLDWATER","lat":"41.92","lon":"-85.03"},{"id":"KP59","name":"COPPER HARBOR","lat":"47.47","lon":"-87.88"},{"id":"KDET","name":"DETROIT\/CITY AIR","lat":"42.4","lon":"-83.02"},{"id":"KYIP","name":"DETROIT\/WILLOW","lat":"42.23","lon":"-83.53"},{"id":"KDTW","name":"DETROIT\/WAYNE","lat":"42.23","lon":"-83.33"},{"id":"KONZ","name":"DETROIT\/GROSSE I","lat":"42.1","lon":"-83.15"},{"id":"KDRM","name":"DRUMMOND IS","lat":"46.0","lon":"-83.75"},{"id":"KESC","name":"ESCANABA","lat":"45.75","lon":"-87.08"},{"id":"KFNT","name":"FLINT","lat":"42.97","lon":"-83.75"},{"id":"KFKS","name":"FRANKFORT","lat":"44.63","lon":"-86.2"},{"id":"KFFX","name":"FREMONT","lat":"43.43","lon":"-86.0"},{"id":"KGLR","name":"GAYLORD","lat":"45.02","lon":"-84.68"},{"id":"KGRR","name":"GRAND RAPIDS","lat":"42.88","lon":"-85.52"},{"id":"KGOV","name":"GRAYLING AF","lat":"44.68","lon":"-84.73"},{"id":"KSAW","name":"GWINN\/SAWYER","lat":"46.35","lon":"-87.4"},{"id":"KCMX","name":"HANCOCK","lat":"47.17","lon":"-88.48"},{"id":"KMGN","name":"HARBOR SPRINGS","lat":"45.43","lon":"-84.92"},{"id":"KC04","name":"HART\/SHELBY","lat":"41.92","lon":"-85.03"},{"id":"KJYM","name":"HILLSDALE","lat":"41.92","lon":"-84.58"},{"id":"KBIV","name":"HOLLAND","lat":"42.75","lon":"-86.1"},{"id":"KHTL","name":"HOUGHTON LAKE","lat":"44.35","lon":"-84.67"},{"id":"KOZW","name":"HOWELL","lat":"42.62","lon":"-83.97"},{"id":"KY70","name":"IONIA","lat":"42.93","lon":"-85.07"},{"id":"KIMT","name":"IRON MOUNTAIN","lat":"45.82","lon":"-88.12"},{"id":"KIWD","name":"IRONWOOD","lat":"46.52","lon":"-90.12"},{"id":"KJXN","name":"JACKSON\/REYNOLDS","lat":"42.27","lon":"-84.47"},{"id":"KAZO","name":"KALAMAZOO","lat":"42.23","lon":"-85.55"},{"id":"KDUH","name":"LAMBERTVILLE","lat":"41.73","lon":"-83.65"},{"id":"KLAN","name":"LANSING","lat":"42.78","lon":"-84.58"},{"id":"KD95","name":"LAPEER","lat":"43.07","lon":"-83.27"},{"id":"KLDM","name":"LUDINGTON\/MASON","lat":"43.97","lon":"-86.4"},{"id":"KMCD","name":"MACKINAC ISLAND","lat":"45.85","lon":"-84.63"},{"id":"KMBL","name":"MANISTEE","lat":"44.27","lon":"-86.25"},{"id":"KISQ","name":"MANISTIQUE","lat":"45.97","lon":"-86.17"},{"id":"KP75","name":"MANISTIQUE","lat":"45.95","lon":"-86.23"},{"id":"KRMY","name":"MARSHALL","lat":"42.23","lon":"-84.95"},{"id":"KTEW","name":"MASON","lat":"42.57","lon":"-84.42"},{"id":"KMNM","name":"MENOMINEE","lat":"45.12","lon":"-87.62"},{"id":"KIKW","name":"MIDLAND BARSTOW","lat":"43.67","lon":"-84.27"},{"id":"KTTF","name":"MONROE","lat":"41.93","lon":"-83.42"},{"id":"KMOP","name":"MOUNT PLEASANT","lat":"43.62","lon":"-84.73"},{"id":"KP53","name":"MUNISING LAKESH","lat":"46.42","lon":"-86.65"},{"id":"KMKG","name":"MUSKEGON","lat":"43.17","lon":"-86.23"},{"id":"KERY","name":"NEWBERRY","lat":"46.3","lon":"-85.45"},{"id":"KOSC","name":"OSCODA\/WURTSMITH","lat":"44.45","lon":"-83.4"},{"id":"KRNP","name":"OWOSSO","lat":"43.0","lon":"-84.13"},{"id":"KPLN","name":"PELLSTON","lat":"45.57","lon":"-84.8"},{"id":"KPTK","name":"PONTIAC","lat":"42.67","lon":"-83.42"},{"id":"KP58","name":"PORT HOPE","lat":"44.02","lon":"-82.8"},{"id":"KPHN","name":"PORT HURON","lat":"42.92","lon":"-82.52"},{"id":"KPZQ","name":"ROGERS CITY","lat":"45.4","lon":"-83.82"},{"id":"KMBS","name":"SAGINAW","lat":"43.53","lon":"-84.08"},{"id":"KHYX","name":"SAGINAW\/BROWNE","lat":"43.43","lon":"-83.87"},{"id":"KSVM","name":"SALEM (LANSING)","lat":"42.42","lon":"-83.6"},{"id":"KSSM","name":"SAULT STE MARIE","lat":"46.47","lon":"-84.37"},{"id":"KANJ","name":"SAULT STE MARIE","lat":"46.47","lon":"-84.37"},{"id":"KMTC","name":"SELFRIDGE ANGB","lat":"42.62","lon":"-82.82"},{"id":"KLWA","name":"SOUTH HAVEN","lat":"42.35","lon":"-86.25"},{"id":"KIRS","name":"STURGIS\/KIRSCH","lat":"41.8","lon":"-85.43"},{"id":"KHAI","name":"THREE RIVERS","lat":"41.97","lon":"-85.6"},{"id":"KTVC","name":"TRAVERSE CIT","lat":"44.73","lon":"-85.57"},{"id":"KVLL","name":"TROY\/OAKLAND","lat":"42.55","lon":"-83.18"},{"id":"KY31","name":"WEST BRANCH","lat":"44.25","lon":"-84.18"},{"id":"KAIT","name":"AITKIN NDB","lat":"46.53","lon":"-93.67"},{"id":"KAEL","name":"ALBERT LEA","lat":"43.68","lon":"-93.37"},{"id":"KAXN","name":"ALEXANDRIA","lat":"45.87","lon":"-95.4"},{"id":"KAQP","name":"APPLETON MUNICIP","lat":"45.22","lon":"-96.0"},{"id":"KAUM","name":"AUSTIN MUNI","lat":"43.67","lon":"-92.92"},{"id":"KBDE","name":"BAUDETTE","lat":"48.73","lon":"-94.62"},{"id":"KBJI","name":"BEMIDJI","lat":"47.5","lon":"-94.92"},{"id":"KBBB","name":"BENSON MUNI","lat":"45.32","lon":"-95.65"},{"id":"KFOZ","name":"BIGFORK","lat":"47.77","lon":"-93.65"},{"id":"KBRD","name":"BRAINERD","lat":"46.4","lon":"-94.13"},{"id":"KCFE","name":"BUFFALO MUNI","lat":"45.17","lon":"-93.85"},{"id":"KCBG","name":"CAMBRIDGE MUNI","lat":"45.57","lon":"-93.27"},{"id":"KRYM","name":"CAMP RIDLEY","lat":"46.08","lon":"-94.37"},{"id":"KCNB","name":"CANBY\/MYERS FLD","lat":"44.73","lon":"-96.27"},{"id":"KCOQ","name":"CLOQUET","lat":"46.7","lon":"-92.5"},{"id":"KCQM","name":"COOK MUNI AIRPOR","lat":"47.82","lon":"-92.68"},{"id":"KCDD","name":"CRANE LAKE","lat":"48.27","lon":"-92.48"},{"id":"KCKN","name":"CROOKSTON MUNI","lat":"47.85","lon":"-96.62"},{"id":"KDTL","name":"DETROIT LAKES","lat":"46.82","lon":"-95.87"},{"id":"KTOB","name":"DODGE CENTER","lat":"44.02","lon":"-92.82"},{"id":"KDYT","name":"DULUTH (SKY HARB","lat":"46.72","lon":"-92.03"},{"id":"KDLH","name":"DULUTH","lat":"46.85","lon":"-92.2"},{"id":"KY63","name":"ELBOW LAKE MUNI","lat":"45.98","lon":"-96.0"},{"id":"KELO","name":"ELY MUNI","lat":"47.82","lon":"-91.82"},{"id":"KEVM","name":"EVELETH MUNI","lat":"47.42","lon":"-92.5"},{"id":"KFRM","name":"FAIRMONT MUNI","lat":"43.63","lon":"-94.42"},{"id":"KFBL","name":"FARIBAULT MUNI","lat":"44.33","lon":"-93.32"},{"id":"KFFM","name":"FERGUS FALLS","lat":"46.28","lon":"-96.15"},{"id":"KFGN","name":"FLAG ISLAND","lat":"49.32","lon":"-94.9"},{"id":"KFSE","name":"FOSSTON","lat":"47.58","lon":"-95.77"},{"id":"KGYL","name":"GLENCOE","lat":"44.77","lon":"-94.08"},{"id":"KGHW","name":"GLENWOOD","lat":"45.63","lon":"-95.32"},{"id":"KGNA","name":"GRAND MARAIS","lat":"47.75","lon":"-90.35"},{"id":"KGRM","name":"GRAND MARAIS","lat":"47.83","lon":"-90.38"},{"id":"KCKC","name":"GRAND MARAIS\/COO","lat":"47.83","lon":"-90.37"},{"id":"KGPZ","name":"GRAND RAPIDS","lat":"47.22","lon":"-93.52"},{"id":"KGDB","name":"GRANITE FALLS","lat":"44.75","lon":"-95.55"},{"id":"KHCO","name":"HALLOCK","lat":"48.75","lon":"-96.93"},{"id":"KHIB","name":"HIBBING","lat":"47.38","lon":"-92.83"},{"id":"K04W","name":"HINCKLEY","lat":"46.02","lon":"-92.9"},{"id":"KHCD","name":"HUTCHINSON","lat":"44.87","lon":"-94.38"},{"id":"KINL","name":"INTERNTNL FALLS","lat":"48.57","lon":"-93.4"},{"id":"KMJQ","name":"JACKSON MUNI","lat":"43.63","lon":"-94.97"},{"id":"K21D","name":"LAKE ELMO","lat":"45.0","lon":"-92.85"},{"id":"KLJF","name":"LITCHFIELD","lat":"45.1","lon":"-94.52"},{"id":"KLXL","name":"LITTLE FALLS","lat":"45.95","lon":"-94.33"},{"id":"K14Y","name":"LONG PRAIRIE","lat":"45.9","lon":"-94.87"},{"id":"KXVG","name":"LONGVILLE","lat":"46.98","lon":"-94.2"},{"id":"KLYV","name":"LUVERNE","lat":"43.62","lon":"-96.22"},{"id":"KDXX","name":"MADISON","lat":"44.98","lon":"-96.18"},{"id":"K3N8","name":"MAHNOMEN","lat":"47.25","lon":"-95.88"},{"id":"KMKT","name":"MANKATO","lat":"44.22","lon":"-93.92"},{"id":"KMML","name":"MARSHALL\/RYAN","lat":"44.45","lon":"-95.82"},{"id":"KMGG","name":"MAPLE LAKE","lat":"45.23","lon":"-93.98"},{"id":"KHZX","name":"MCGREGOR\/IVERSON","lat":"46.62","lon":"-93.32"},{"id":"KMSP","name":"MINNEAPOLIS","lat":"44.88","lon":"-93.23"},{"id":"KANE","name":"MINNEAPLS\/BLAINE","lat":"45.15","lon":"-93.22"},{"id":"KFCM","name":"MNPLS\/FLYING CLD","lat":"44.83","lon":"-93.47"},{"id":"KMIC","name":"MNPLS\/CRYSTAL","lat":"45.07","lon":"-93.35"},{"id":"KLVN","name":"MNPLS\/AIRLAKE","lat":"44.63","lon":"-93.23"},{"id":"KMVE","name":"MONTEVIDEO","lat":"44.97","lon":"-95.72"},{"id":"KJKJ","name":"MOORHEAD MUNI","lat":"46.83","lon":"-96.67"},{"id":"KMZH","name":"MOOSE LAKE","lat":"46.42","lon":"-92.8"},{"id":"KJMR","name":"MORA","lat":"45.88","lon":"-93.27"},{"id":"KMOX","name":"MORRIS MUNI","lat":"45.57","lon":"-95.97"},{"id":"K27D","name":"CANBY\/MYERS FLD","lat":"44.73","lon":"-96.27"},{"id":"KULM","name":"NEW ULM MUNI","lat":"44.32","lon":"-94.5"},{"id":"KOVL","name":"OLIVIA","lat":"44.78","lon":"-95.03"},{"id":"KORB","name":"ORR","lat":"48.02","lon":"-92.87"},{"id":"KVVV","name":"ORTONVILLE","lat":"45.3","lon":"-96.42"},{"id":"KOWA","name":"OWATONNA","lat":"44.12","lon":"-93.25"},{"id":"KPKD","name":"PARK RAPIDS","lat":"46.9","lon":"-95.07"},{"id":"KPEX","name":"PAYNESVILLE","lat":"45.37","lon":"-94.73"},{"id":"KPWC","name":"PINE RIVER REGIO","lat":"46.72","lon":"-94.37"},{"id":"KPQN","name":"PIPESTONE","lat":"43.97","lon":"-96.32"},{"id":"KFKA","name":"PRESTON","lat":"43.68","lon":"-92.17"},{"id":"KPNM","name":"PRINCETON MUNI","lat":"45.57","lon":"-93.6"},{"id":"KRGK","name":"RED WING","lat":"44.58","lon":"-92.48"},{"id":"KRWF","name":"REDWOOD FALL","lat":"44.55","lon":"-95.08"},{"id":"KRST","name":"ROCHESTER","lat":"43.9","lon":"-92.5"},{"id":"K9MN","name":"ST MARY HOSPITAL","lat":"44.02","lon":"-92.48"},{"id":"KROX","name":"ROSEAU MUNI","lat":"48.85","lon":"-95.7"},{"id":"KROS","name":"RUSH CITY","lat":"45.7","lon":"-92.95"},{"id":"KD39","name":"SAUK CENTRE","lat":"45.7","lon":"-94.93"},{"id":"KBFW","name":"SILVER BAY","lat":"47.25","lon":"-91.4"},{"id":"KDVP","name":"SLAYTON","lat":"43.98","lon":"-95.78"},{"id":"KSGS","name":"SOUTH ST PAUL","lat":"44.87","lon":"-93.03"},{"id":"KSTC","name":"ST. CLOUD","lat":"45.55","lon":"-94.05"},{"id":"KJYG","name":"ST. JAMES","lat":"43.98","lon":"-94.55"},{"id":"KSTP","name":"ST. PAUL","lat":"44.93","lon":"-93.05"},{"id":"KSYN","name":"STANTON","lat":"44.47","lon":"-93.02"},{"id":"KSAZ","name":"STAPLES","lat":"46.37","lon":"-94.8"},{"id":"KTVF","name":"THIEF RIVER","lat":"48.07","lon":"-96.17"},{"id":"KP61","name":"TOFTE (RAMOS)","lat":"47.57","lon":"-90.82"},{"id":"KTKC","name":"TRACY","lat":"44.25","lon":"-95.62"},{"id":"KTWM","name":"TWO HARBORS","lat":"47.03","lon":"-91.75"},{"id":"KADC","name":"WADENA MUNI","lat":"46.45","lon":"-95.22"},{"id":"KY49","name":"WALKER MUNI","lat":"47.13","lon":"-94.65"},{"id":"KRRT","name":"WARROAD","lat":"48.93","lon":"-95.33"},{"id":"KACQ","name":"WASECA","lat":"44.07","lon":"-93.55"},{"id":"KVWU","name":"WASKISH MUNI","lat":"48.15","lon":"-94.52"},{"id":"KETH","name":"WHEATON NDB","lat":"45.78","lon":"-96.55"},{"id":"KILL","name":"WILLMAR\/RICE","lat":"45.12","lon":"-95.07"},{"id":"KBDH","name":"WILLMAR MUNI","lat":"45.12","lon":"-95.13"},{"id":"KMWM","name":"WINDOM MUNI AIRP","lat":"43.9","lon":"-95.1"},{"id":"KONA","name":"WINONA MUNI","lat":"44.07","lon":"-91.7"},{"id":"KOTG","name":"WORTHINGTON","lat":"43.63","lon":"-95.57"},{"id":"KVER","name":"BOONVILLE","lat":"38.95","lon":"-92.68"},{"id":"KBBG","name":"BRANSON","lat":"36.53","lon":"-93.2"},{"id":"KFWB","name":"BRANSON WEST","lat":"36.7","lon":"-93.4"},{"id":"KH21","name":"CAMDENTON","lat":"37.97","lon":"-92.68"},{"id":"KOZS","name":"CAMDENTON","lat":"37.97","lon":"-92.68"},{"id":"KEZZ","name":"CAMERON","lat":"39.72","lon":"-94.28"},{"id":"KCGI","name":"CAPE GIRARDEAU","lat":"37.23","lon":"-89.58"},{"id":"KCDJ","name":"CHILLICOTHE","lat":"39.82","lon":"-93.58"},{"id":"KGLY","name":"CLINTON","lat":"38.35","lon":"-93.68"},{"id":"KCOU","name":"COLUMBIA","lat":"38.82","lon":"-92.22"},{"id":"KFAM","name":"FARMINGTON","lat":"37.77","lon":"-90.42"},{"id":"KTBN","name":"FORT LEONARD WOO","lat":"37.72","lon":"-92.12"},{"id":"KGVW","name":"GRANDVIEW","lat":"38.83","lon":"-94.57"},{"id":"KHAE","name":"HANNIBAL","lat":"39.73","lon":"-91.45"},{"id":"KLRY","name":"HARRISONVILLE","lat":"38.62","lon":"-94.35"},{"id":"KJEF","name":"JEFFERSON CITY","lat":"38.6","lon":"-92.15"},{"id":"KJLN","name":"JOPLIN","lat":"37.15","lon":"-94.5"},{"id":"KLBO","name":"LEBANON","lat":"37.65","lon":"-92.65"},{"id":"KAIZ","name":"KAISER MEM","lat":"38.1","lon":"-92.53"},{"id":"KMCI","name":"KANSAS CITY\/INTL","lat":"39.3","lon":"-94.73"},{"id":"KMKC","name":"KANSAS CITY\/DNTN","lat":"39.12","lon":"-94.6"},{"id":"KTKX","name":"KENNETT","lat":"36.22","lon":"-90.02"},{"id":"KIRK","name":"KIRKSVILLE","lat":"40.1","lon":"-92.55"},{"id":"KLXT","name":"LEES SUMMIT MUNI","lat":"38.97","lon":"-94.37"},{"id":"KMAW","name":"MALDEN","lat":"36.6","lon":"-90.0"},{"id":"KMHL","name":"MARSHALL","lat":"39.1","lon":"-93.2"},{"id":"KEVU","name":"MARYVILLE","lat":"40.35","lon":"-94.92"},{"id":"KMYJ","name":"MEXICO","lat":"39.15","lon":"-91.82"},{"id":"KMBY","name":"MOBERLY","lat":"39.47","lon":"-92.43"},{"id":"KHFJ","name":"MONETT","lat":"36.9","lon":"-94.02"},{"id":"KGPH","name":"MOSBY","lat":"39.33","lon":"-94.32"},{"id":"KEOS","name":"NEOSHO","lat":"36.82","lon":"-94.4"},{"id":"KNVD","name":"NEVADA","lat":"37.85","lon":"-94.3"},{"id":"KK02","name":"PERRYVILLE","lat":"37.87","lon":"-89.87"},{"id":"KPCD","name":"PERRYVILLE","lat":"37.87","lon":"-89.87"},{"id":"KPYN","name":"PIEDMONT","lat":"37.13","lon":"-90.72"},{"id":"KPOF","name":"POPULAR BLUFF","lat":"36.77","lon":"-90.32"},{"id":"KDMO","name":"SEDALIA","lat":"38.72","lon":"-93.17"},{"id":"KSIK","name":"SIKESTON","lat":"36.9","lon":"-89.57"},{"id":"KP35","name":"SPICKARD","lat":"40.25","lon":"-93.72"},{"id":"KSGF","name":"SPRINGFIELD","lat":"37.23","lon":"-93.38"},{"id":"KSET","name":"ST. CHARLES","lat":"38.93","lon":"-90.43"},{"id":"KSTJ","name":"ST. JOSEPH","lat":"39.77","lon":"-94.92"},{"id":"KSUS","name":"ST. LOUIS\/SPIRIT","lat":"38.65","lon":"-90.65"},{"id":"KSTL","name":"ST. LOUIS","lat":"38.75","lon":"-90.37"},{"id":"KUUV","name":"SULLIVAN","lat":"38.23","lon":"-91.17"},{"id":"KVIH","name":"VICHY\/ROLLA","lat":"38.13","lon":"-91.77"},{"id":"KRAW","name":"WARSAW","lat":"38.35","lon":"-93.35"},{"id":"KRCM","name":"WARRENSBURG SKYH","lat":"38.78","lon":"-93.8"},{"id":"KFYG","name":"WASHINGTON","lat":"38.58","lon":"-91.0"},{"id":"KUNO","name":"WEST PLAINS","lat":"36.88","lon":"-91.9"},{"id":"KSZL","name":"WHITEMAN AFB","lat":"38.72","lon":"-93.53"},{"id":"KM40","name":"ABERDEEN\/AMORY","lat":"33.87","lon":"-88.48"},{"id":"KHSA","name":"BAY ST LOUIS","lat":"30.37","lon":"-89.45"},{"id":"K01M","name":"BELMONT","lat":"34.5","lon":"-88.2"},{"id":"KBIX","name":"BILOXI\/KEESLER","lat":"30.42","lon":"-88.92"},{"id":"K1R7","name":"BROOKHAVEN","lat":"31.6","lon":"-90.42"},{"id":"KCKM","name":"CLARKSDALE","lat":"34.3","lon":"-90.52"},{"id":"KRNV","name":"CLEVELAND","lat":"33.77","lon":"-90.75"},{"id":"K0R0","name":"COLUMBIA\/MARION","lat":"31.3","lon":"-89.82"},{"id":"KCBM","name":"COLUMBUS AFB","lat":"33.63","lon":"-88.45"},{"id":"KCRX","name":"CORINTH\/R TURNER","lat":"34.92","lon":"-88.6"},{"id":"KGTR","name":"GOLDEN\/COLUMBUS","lat":"33.45","lon":"-88.57"},{"id":"KGLH","name":"GREENVILLE","lat":"33.5","lon":"-90.98"},{"id":"KGWO","name":"GREENWOOD","lat":"33.5","lon":"-90.08"},{"id":"KGNF","name":"GRENADA","lat":"33.83","lon":"-89.8"},{"id":"KGPT","name":"GULFPORT","lat":"30.42","lon":"-89.08"},{"id":"KHBG","name":"HATTIESBURG","lat":"31.27","lon":"-89.25"},{"id":"KIDL","name":"INDIANOLA","lat":"33.48","lon":"-90.68"},{"id":"KHKS","name":"JACKSON\/HAWKINS","lat":"32.33","lon":"-90.22"},{"id":"KJAN","name":"JACKSON","lat":"32.32","lon":"-90.08"},{"id":"KLUL","name":"LAUREL","lat":"31.67","lon":"-89.17"},{"id":"KMBO","name":"MADISON","lat":"32.43","lon":"-90.1"},{"id":"KMCB","name":"MCCOMB","lat":"31.18","lon":"-90.47"},{"id":"KNMM","name":"MERIDIAN NAS","lat":"32.53","lon":"-88.57"},{"id":"KMEI","name":"MERIDIAN\/KEY FLD","lat":"32.33","lon":"-88.75"},{"id":"KHEZ","name":"NATCHEZ\/HARDY","lat":"31.62","lon":"-91.3"},{"id":"KOLV","name":"OLIVE BRANCH","lat":"34.98","lon":"-89.78"},{"id":"KUOX","name":"OXFORD","lat":"34.38","lon":"-89.53"},{"id":"KPQL","name":"PASCAGOULA","lat":"30.47","lon":"-88.53"},{"id":"KPGL","name":"PASCAGOULA","lat":"30.4","lon":"-88.48"},{"id":"KPMU","name":"PANOLA","lat":"34.37","lon":"-89.9"},{"id":"KPIB","name":"PINE BELT RGNL","lat":"31.47","lon":"-89.32"},{"id":"KJVW","name":"RAYMOND","lat":"32.3","lon":"-90.42"},{"id":"KSTF","name":"STARKVILLE","lat":"33.43","lon":"-88.85"},{"id":"KUTA","name":"TUNICA","lat":"34.68","lon":"-90.35"},{"id":"KTUP","name":"TUPELO","lat":"34.27","lon":"-88.77"},{"id":"K5A6","name":"WINONA","lat":"33.47","lon":"-89.73"},{"id":"KVKS","name":"VICKSBURG","lat":"32.23","lon":"-90.93"},{"id":"KMYT","name":"INNOVATOR OILP","lat":"28.22","lon":"-89.62"},{"id":"KDLP","name":"WEST DELTA 27A","lat":"29.12","lon":"-89.55"},{"id":"KBHK","name":"BAKER","lat":"46.35","lon":"-104.25"},{"id":"KEKS","name":"ENNIS BIG SKY","lat":"45.27","lon":"-111.65"},{"id":"K6S0","name":"BIG TIMBER","lat":"45.8","lon":"-109.97"},{"id":"KBIL","name":"BILLINGS","lat":"45.8","lon":"-108.55"},{"id":"KBZN","name":"BOZEMAN","lat":"45.78","lon":"-111.17"},{"id":"K8S0","name":"BROWNING","lat":"48.6","lon":"-113.12"},{"id":"KBTM","name":"BUTTE","lat":"45.97","lon":"-112.5"},{"id":"KS71","name":"CHINOOK","lat":"48.6","lon":"-109.25"},{"id":"KM46","name":"COLSTRIP","lat":"45.85","lon":"-106.72"},{"id":"KCTB","name":"CUT BANK","lat":"48.6","lon":"-112.37"},{"id":"KDLN","name":"DILLON","lat":"45.25","lon":"-112.55"},{"id":"K3DU","name":"DRUMMOND","lat":"46.67","lon":"-113.15"},{"id":"K97M","name":"EKALAKA","lat":"45.88","lon":"-104.53"},{"id":"K88M","name":"EUREKA","lat":"48.97","lon":"-115.08"},{"id":"K1S3","name":"FORSYTH","lat":"46.27","lon":"-106.62"},{"id":"KGGW","name":"GLASGOW","lat":"48.22","lon":"-106.62"},{"id":"KGDV","name":"GLENDIVE","lat":"47.12","lon":"-104.78"},{"id":"KGTF","name":"GREAT FALLS","lat":"47.47","lon":"-111.38"},{"id":"K6S5","name":"HAMILTON\/RAVALLI","lat":"46.25","lon":"-114.13"},{"id":"K3HT","name":"HARLOWTON","lat":"46.42","lon":"-109.82"},{"id":"KHVR","name":"HAVRE","lat":"48.55","lon":"-109.77"},{"id":"KHLN","name":"HELENA","lat":"46.6","lon":"-111.98"},{"id":"KJDN","name":"JORDAN","lat":"47.33","lon":"-106.95"},{"id":"KGPI","name":"KALISPELL","lat":"48.32","lon":"-114.25"},{"id":"K6S8","name":"LAUREL","lat":"45.7","lon":"-108.77"},{"id":"KLWT","name":"LEWISTOWN","lat":"47.03","lon":"-109.47"},{"id":"KS59","name":"LIBBY","lat":"48.28","lon":"-115.48"},{"id":"KLVM","name":"LIVINGSTON","lat":"45.7","lon":"-110.43"},{"id":"KGFA","name":"MALMSTROM AFB","lat":"47.5","lon":"-111.17"},{"id":"KM75","name":"MALTA","lat":"48.37","lon":"-107.92"},{"id":"KMLS","name":"MILES CITY","lat":"46.43","lon":"-105.88"},{"id":"KMSO","name":"MISSOULA","lat":"46.92","lon":"-114.1"},{"id":"KMVH","name":"N BAR RANCH","lat":"46.83","lon":"-108.93"},{"id":"KS34","name":"PLAINS","lat":"47.47","lon":"-114.9"},{"id":"KPWD","name":"PLENTYWOOD","lat":"48.78","lon":"-104.52"},{"id":"KPO1","name":"POPLAR","lat":"48.13","lon":"-105.17"},{"id":"KRPX","name":"ROUNDUP","lat":"46.47","lon":"-108.55"},{"id":"K9S2","name":"SCOBEY","lat":"48.8","lon":"-105.43"},{"id":"KSDY","name":"SIDNEY RICHLAND","lat":"47.7","lon":"-104.2"},{"id":"K3TH","name":"THOMPSON FALLS","lat":"47.6","lon":"-115.37"},{"id":"K7S1","name":"TWIN BRIDGES","lat":"45.53","lon":"-112.3"},{"id":"KWEY","name":"WEST YELLOWSTONE","lat":"44.63","lon":"-111.08"},{"id":"KOLF","name":"WOLF POINT","lat":"48.1","lon":"-105.58"},{"id":"KWYS","name":"WEST YELLOWSTONE","lat":"44.67","lon":"-111.12"},{"id":"K1AM","name":"ALPHA","lat":"47.28","lon":"-110.8"},{"id":"K1BM","name":"BRAVO","lat":"47.28","lon":"-110.37"},{"id":"K1CM","name":"CHARLIE","lat":"47.1","lon":"-110.17"},{"id":"K1DM","name":"DELTA","lat":"47.33","lon":"-109.95"},{"id":"K1EM","name":"ECHO","lat":"47.45","lon":"-109.42"},{"id":"K1FM","name":"FOXTROT","lat":"47.6","lon":"-112.32"},{"id":"K1GM","name":"GOLF","lat":"47.33","lon":"-112.1"},{"id":"K1IM","name":"INDIA","lat":"47.32","lon":"-111.47"},{"id":"K1JM","name":"JULIE","lat":"47.75","lon":"-111.55"},{"id":"K1KM","name":"KILO","lat":"46.45","lon":"-109.8"},{"id":"K1LM","name":"LIMA","lat":"46.7","lon":"-109.73"},{"id":"K1MM","name":"MIKE","lat":"47.02","lon":"-109.63"},{"id":"K1NM","name":"NOVEMBER","lat":"47.07","lon":"-109.03"},{"id":"K1OM","name":"OSCAR","lat":"47.33","lon":"-108.93"},{"id":"KASJ","name":"AHOSKIE\/TRI COUN","lat":"36.28","lon":"-77.17"},{"id":"KVUJ","name":"ALBEMARLE STANLY","lat":"35.42","lon":"-80.15"},{"id":"KRHP","name":"ANDREWS","lat":"35.18","lon":"-83.85"},{"id":"KAFP","name":"WADESBORO\/ANSON","lat":"35.02","lon":"-80.08"},{"id":"KHBI","name":"ASHEBORO MUNI","lat":"35.65","lon":"-79.9"},{"id":"KAVL","name":"ASHEVILLE","lat":"35.43","lon":"-82.53"},{"id":"KMRH","name":"BEAUFORT","lat":"34.73","lon":"-76.65"},{"id":"KNJM","name":"BOGUE\/SWANSBORO","lat":"34.67","lon":"-77.02"},{"id":"KTNB","name":"BOONE WATAUGA CT","lat":"36.2","lon":"-81.65"},{"id":"KBUY","name":"BURLINGTON","lat":"36.05","lon":"-79.47"},{"id":"KHAT","name":"CAPE HATTERAS","lat":"35.27","lon":"-75.53"},{"id":"KIGX","name":"CHAPEL HILL","lat":"35.93","lon":"-79.07"},{"id":"KCLT","name":"CHARLOTTE","lat":"35.22","lon":"-80.95"},{"id":"KNKT","name":"CHERRY POINT","lat":"34.9","lon":"-76.88"},{"id":"KCTZ","name":"CLINTON","lat":"34.98","lon":"-78.37"},{"id":"KJQF","name":"CONCORD REG ARPT","lat":"35.38","lon":"-80.72"},{"id":"KONX","name":"CURRITUCK","lat":"36.4","lon":"-76.02"},{"id":"KEXX","name":"DAVIDSON CTY AP","lat":"35.78","lon":"-80.3"},{"id":"KEDE","name":"EDENTON","lat":"36.02","lon":"-76.57"},{"id":"KECG","name":"ELIZABETH CITY","lat":"36.27","lon":"-76.18"},{"id":"KEYF","name":"ELIZABETHTOWN","lat":"34.6","lon":"-78.58"},{"id":"K7W6","name":"ENGELHARD\/HYDE","lat":"35.55","lon":"-75.95"},{"id":"KHRJ","name":"ERWIN\/HARNETT CO","lat":"35.38","lon":"-78.73"},{"id":"KFAY","name":"FAYETTEVILLE","lat":"34.98","lon":"-78.88"},{"id":"KFBG","name":"FORT BRAGG\/SIMMO","lat":"35.12","lon":"-78.92"},{"id":"KAKH","name":"GASTONIA","lat":"35.2","lon":"-81.15"},{"id":"KGSB","name":"GOLDSBORO\/S. J.","lat":"35.32","lon":"-77.97"},{"id":"KGWW","name":"GOLDSBORO\/WAYNE","lat":"35.47","lon":"-77.97"},{"id":"KGSO","name":"GREENSBORO","lat":"36.1","lon":"-79.95"},{"id":"KHSE","name":"HATTERAS\/MITCHEL","lat":"35.23","lon":"-75.62"},{"id":"KHNZ","name":"HENDERSON\/OXFORD","lat":"36.37","lon":"-78.53"},{"id":"KHKY","name":"HICKORY","lat":"35.75","lon":"-81.38"},{"id":"KHFF","name":"HOFFMAN\/MACKALL","lat":"35.02","lon":"-79.5"},{"id":"KOAJ","name":"JACKSONVILLE","lat":"34.82","lon":"-77.62"},{"id":"KGEV","name":"JEFFERSON","lat":"36.43","lon":"-81.42"},{"id":"KDPL","name":"KENANSVILLE\/DUPL","lat":"35.0","lon":"-77.97"},{"id":"KFFA","name":"KILL DEVIL HILLS","lat":"36.02","lon":"-75.67"},{"id":"KISO","name":"KINSTON\/STALLING","lat":"35.32","lon":"-77.62"},{"id":"KIPJ","name":"LINCOLNTON","lat":"35.48","lon":"-81.17"},{"id":"KLHZ","name":"LOUISBURG\/FRANKL","lat":"36.02","lon":"-78.33"},{"id":"KLBT","name":"LUMBERTON","lat":"34.6","lon":"-79.07"},{"id":"K1A5","name":"MACON\/FRANKLIN","lat":"35.22","lon":"-83.42"},{"id":"KMQI","name":"MANTEO\/DARE CO","lat":"35.92","lon":"-75.7"},{"id":"KMEB","name":"MAXTON","lat":"34.78","lon":"-79.37"},{"id":"KEQY","name":"MONROE","lat":"35.02","lon":"-80.62"},{"id":"KMRN","name":"MORGANTON\/LENOIR","lat":"35.82","lon":"-81.62"},{"id":"KMWK","name":"MOUNT AIRY\/SURRY","lat":"36.47","lon":"-80.55"},{"id":"KEWN","name":"NEW BERN","lat":"35.07","lon":"-77.05"},{"id":"KNCA","name":"NEW RIVER MCAS","lat":"34.72","lon":"-77.45"},{"id":"KNBT","name":"PINEY ISLAND","lat":"35.02","lon":"-76.47"},{"id":"KPGV","name":"PITT GREENVILLE","lat":"35.62","lon":"-77.4"},{"id":"KPOB","name":"POPE AFB","lat":"35.17","lon":"-79.02"},{"id":"KRDU","name":"RALEIGH\/DURHAM","lat":"35.9","lon":"-78.78"},{"id":"KSIF","name":"REIDSVILLE","lat":"36.43","lon":"-79.85"},{"id":"KRZZ","name":"ROANOKE RAPIDS","lat":"36.43","lon":"-77.72"},{"id":"KIXA","name":"HALIFAX NORTHAMP","lat":"36.33","lon":"-77.63"},{"id":"KRCZ","name":"ROCKINGHAM","lat":"34.88","lon":"-79.77"},{"id":"KRWI","name":"ROCKY MOUNT","lat":"35.85","lon":"-77.9"},{"id":"KTDF","name":"ROXBORO PERSON","lat":"36.28","lon":"-78.98"},{"id":"KFQD","name":"RUTHERFORDTON","lat":"35.42","lon":"-81.93"},{"id":"KRUQ","name":"SALISBURY ROWAN","lat":"35.65","lon":"-80.52"},{"id":"KTTA","name":"SANFORD","lat":"35.58","lon":"-79.1"},{"id":"KEHO","name":"SHELBY MUNI","lat":"35.25","lon":"-81.6"},{"id":"K5W8","name":"SILER CITY","lat":"35.7","lon":"-79.5"},{"id":"KSCR","name":"SILER CITY","lat":"35.7","lon":"-79.5"},{"id":"KSOP","name":"SOUTHERN PINES","lat":"35.22","lon":"-79.4"},{"id":"KJNX","name":"SMITHFIELD JOHNS","lat":"35.53","lon":"-78.38"},{"id":"KSVH","name":"STATESVILLE","lat":"35.75","lon":"-80.95"},{"id":"K2DP","name":"STUMPY POINT","lat":"35.68","lon":"-75.9"},{"id":"KSUT","name":"SOUTHPORT","lat":"33.93","lon":"-78.08"},{"id":"K24A","name":"SYLVA","lat":"35.32","lon":"-83.2"},{"id":"KETC","name":"TARBORO","lat":"35.93","lon":"-77.55"},{"id":"KOCW","name":"WASHINGTON","lat":"35.57","lon":"-77.05"},{"id":"KCPC","name":"WHITEVILLE","lat":"34.28","lon":"-78.72"},{"id":"KUKF","name":"WILKESBORO","lat":"36.22","lon":"-81.1"},{"id":"KILM","name":"WILMINGTON","lat":"34.27","lon":"-77.9"},{"id":"KINT","name":"WINSTON SALEM","lat":"36.13","lon":"-80.22"},{"id":"K20U","name":"BEACH","lat":"46.93","lon":"-103.98"},{"id":"KBIS","name":"BISMARCK","lat":"46.77","lon":"-100.75"},{"id":"KBPP","name":"BOWMAN MUNI","lat":"46.18","lon":"-103.43"},{"id":"KBWW","name":"BOWMAN RGNL","lat":"46.17","lon":"-103.3"},{"id":"K9D7","name":"CANDO","lat":"48.48","lon":"-99.23"},{"id":"K46D","name":"CARRINGTON","lat":"47.45","lon":"-99.15"},{"id":"K2C8","name":"CAVALIER","lat":"48.78","lon":"-97.63"},{"id":"KS32","name":"COOPERSTOWN","lat":"47.42","lon":"-98.1"},{"id":"KD50","name":"CROSBY","lat":"48.93","lon":"-103.3"},{"id":"KDVL","name":"DEVILS LAKE","lat":"48.12","lon":"-98.92"},{"id":"KP11","name":"DEVILS LAKE","lat":"48.12","lon":"-98.92"},{"id":"KDIK","name":"DICKINSON","lat":"46.8","lon":"-102.8"},{"id":"KFAR","name":"FARGO","lat":"46.93","lon":"-96.82"},{"id":"KN60","name":"GARRISON","lat":"47.65","lon":"-101.43"},{"id":"KD57","name":"GLEN ULLIN","lat":"46.82","lon":"-101.87"},{"id":"KGAF","name":"GRAFTON","lat":"48.4","lon":"-97.37"},{"id":"KRDR","name":"GRAND FORKS AFB","lat":"47.97","lon":"-97.4"},{"id":"KGFK","name":"GRAND FORKS","lat":"47.95","lon":"-97.18"},{"id":"KGWR","name":"GWINNER","lat":"46.22","lon":"-97.65"},{"id":"K5H4","name":"HARVEY","lat":"47.78","lon":"-99.93"},{"id":"KHZE","name":"HAZEN","lat":"47.28","lon":"-101.58"},{"id":"KHEI","name":"HETTINGER","lat":"46.02","lon":"-102.65"},{"id":"KJMS","name":"JAMESTOWN","lat":"46.93","lon":"-98.67"},{"id":"KD55","name":"LANGDON\/ROBERTSN","lat":"48.75","lon":"-98.4"},{"id":"KP67","name":"LIDGERWOOD (RAMO","lat":"46.1","lon":"-97.15"},{"id":"K7L2","name":"LINTON","lat":"46.22","lon":"-100.25"},{"id":"KY19","name":"MANDAN","lat":"46.77","lon":"-100.9"},{"id":"KMIB","name":"MINOT AFB","lat":"48.42","lon":"-101.33"},{"id":"KMOT","name":"MINOT","lat":"48.25","lon":"-101.27"},{"id":"K2D5","name":"OAKES","lat":"46.17","lon":"-98.08"},{"id":"K06D","name":"ROLLA","lat":"48.88","lon":"-99.62"},{"id":"KRUG","name":"RUGBY","lat":"48.38","lon":"-100.02"},{"id":"K08D","name":"STANLEY","lat":"48.3","lon":"-102.4"},{"id":"KD60","name":"TIOGA","lat":"48.38","lon":"-102.9"},{"id":"KBAC","name":"VALLEY CITY","lat":"46.93","lon":"-98.02"},{"id":"K96D","name":"WALHALLA","lat":"48.93","lon":"-97.9"},{"id":"KS25","name":"WATFORD CITY","lat":"47.8","lon":"-103.25"},{"id":"KISN","name":"WILLISTON","lat":"48.17","lon":"-103.63"},{"id":"KBWP","name":"WAHPETON","lat":"46.25","lon":"-96.62"},{"id":"KANW","name":"AINSWORTH MUNICI","lat":"42.57","lon":"-100.0"},{"id":"KBVN","name":"ALBION MUNI","lat":"41.73","lon":"-98.05"},{"id":"KAIA","name":"ALLIANCE","lat":"42.05","lon":"-102.8"},{"id":"KAUH","name":"AURORA","lat":"40.88","lon":"-98.0"},{"id":"KBIE","name":"BEATRICE MUNICIP","lat":"40.28","lon":"-96.75"},{"id":"KBTA","name":"BLAIR MUNI","lat":"41.42","lon":"-96.12"},{"id":"KBBW","name":"BROKEN BOW MUNI","lat":"41.43","lon":"-99.63"},{"id":"KCDR","name":"CHADRON","lat":"42.83","lon":"-103.1"},{"id":"KOLU","name":"COLUMBUS MUNI","lat":"41.45","lon":"-97.32"},{"id":"KFNB","name":"FALLS CITY\/BRENN","lat":"40.07","lon":"-95.58"},{"id":"KFET","name":"FREMONT MUNI ARP","lat":"41.45","lon":"-96.52"},{"id":"KGRN","name":"GORDON","lat":"42.8","lon":"-102.17"},{"id":"KGRI","name":"GRAND ISLAND","lat":"40.97","lon":"-98.32"},{"id":"KHSI","name":"HASTINGS","lat":"40.6","lon":"-98.43"},{"id":"KHJH","name":"HEBRON MUNI","lat":"40.15","lon":"-97.58"},{"id":"KHDE","name":"HOLDREGE\/BREWSTR","lat":"40.45","lon":"-99.32"},{"id":"KIML","name":"IMPERIAL MUNICIP","lat":"40.52","lon":"-101.62"},{"id":"KEAR","name":"KEARNEY MUNI","lat":"40.72","lon":"-99.0"},{"id":"KIBM","name":"KIMBALL MUNI","lat":"41.18","lon":"-103.68"},{"id":"KLXN","name":"LEXINGTON","lat":"40.78","lon":"-99.77"},{"id":"KLNK","name":"LINCOLN","lat":"40.85","lon":"-96.77"},{"id":"KMCK","name":"MCCOOK","lat":"40.2","lon":"-100.58"},{"id":"KAFK","name":"NEBRASKA CITY","lat":"40.6","lon":"-95.85"},{"id":"KOFK","name":"NORFOLK","lat":"41.98","lon":"-97.43"},{"id":"KOVN","name":"NORTH OMAHA","lat":"41.37","lon":"-96.02"},{"id":"KLBF","name":"NORTH PLATTE","lat":"41.12","lon":"-100.67"},{"id":"KONL","name":"O'NEILL","lat":"42.47","lon":"-98.67"},{"id":"KOFF","name":"OFFUTT AFB\/BELLE","lat":"41.12","lon":"-95.92"},{"id":"KOGA","name":"OGALLALA","lat":"41.12","lon":"-101.77"},{"id":"KOMA","name":"OMAHA\/EPPLEY","lat":"41.32","lon":"-95.9"},{"id":"KMLE","name":"OMAHA\/MILLARD","lat":"41.2","lon":"-96.12"},{"id":"KODX","name":"ORD\/SHARP FIELD","lat":"41.62","lon":"-98.95"},{"id":"KPMV","name":"PLATTSMOUTH MUNI","lat":"40.95","lon":"-95.92"},{"id":"KBFF","name":"SCOTTSBLUFF","lat":"41.87","lon":"-103.58"},{"id":"KSNY","name":"SIDNEY","lat":"41.1","lon":"-102.98"},{"id":"KTQE","name":"TEKAMAH","lat":"41.77","lon":"-96.18"},{"id":"KTIF","name":"THEDFORD\/THOMAS","lat":"41.97","lon":"-100.57"},